stid,ok,name,start_date,end_date,lat,lon,heigh,height2,type,disappear_time,remark,gjjhzh_194_remark,ybzh_2170_remark,,,,红色112
50136,黑龙江,漠河,195704,200012,52.96666667,122.5166667,438.5,439.7,基准站,缺195807、195808,1992年改基准站,,一般站,,,,
50137,黑龙江,北极村,200201,201012,53.46666667,122.3666667,296,297.3,,,,,一般站,,,,
50246,黑龙江,塔河,196012,200012,52.35,124.7166667,361.9,363,基本站,缺196111、196209-197112,,,一般站,,,,
50247,黑龙江,呼中,198101,201012,52.03333333,123.5666667,514.5,514.9,,,,,一般站,,,,
50349,黑龙江,新林,197201,200012,51.06666667,124.4,501.5,502.2,基本站,,,,一般站,,,,
50353,黑龙江,呼玛,195401,201207,51.73333333,126.6333333,173.9,175.6,基本站,,,国际交换站,一般站,,,,
50425,内蒙古,额尔古纳,195701,200012,50.25,120.1833333,581.4,582.3,基本站,,,,一般站,,,,
50431,内蒙古,根河,198101,201012,50.78333333,121.5166667,717,718.2,,,,,一般站,,,,
50434,内蒙古,图里河,195701,201207,50.48333333,121.6833333,732.6,733.7,基准站,,1992年改基准站,国际交换站,一般站,,,,
50442,黑龙江,大兴安岭,196607,200012,50.4,124.1166667,371.7,373.4,基本站,,,,一般站,,,,
50445,内蒙古,鄂伦春旗,198101,201012,50.58333333,123.7333333,423.7,424.7,,,,,一般站,,,,
50468,黑龙江,黑河,195901,200012,50.25,127.45,166.4,167.4,基本站,,,,一般站,,,,
50514,内蒙古,满洲里,195612,200012,49.58333333,117.3166667,661.8,662.7,基准站,,1991年改基准站,,一般站,,,,
50524,内蒙古,陈巴尔虎旗,198101,201012,49.31666667,119.4333333,576.6,578.5,,,,,一般站,,,,
50525,内蒙古,鄂温克旗,198101,201012,49.15,119.75,620.8,621.6,,,,,一般站,,,,
50526,内蒙古,牙克石,198101,201012,49.28333333,120.7,668.8,670,,,,,一般站,,,,
50527,内蒙古,海拉尔,195101,201207,49.25,119.7,649.6,650.4,基本站,,,国际交换站,一般站,,,,
50548,内蒙古,小二沟,195701,200012,49.2,123.7166667,286.1,287.2,基本站,,,,一般站,,,,
50557,黑龙江,嫩江,195101,201207,49.01666667,125.2333333,242.2,243,基本站,,,国际交换站,一般站,,,,
50564,黑龙江,孙吴,195401,201207,49.43333333,127.35,234.5,236,基准站,,1992年改基准站,国际交换站,一般站,,,,
50566,黑龙江,逊克,198101,201012,49.55,128.4666667,116,120,,,,,一般站,,,,
50603,内蒙古,新巴尔虎右旗,195710,200012,48.06666667,116.8166667,554.2,556,基本站,,,,一般站,,,,
50618,内蒙古,新巴尔虎左旗,195811,200012,48.21666667,118.2666667,642,644.6,基本站,,,,一般站,,,,
50632,内蒙古,博克图,195101,201207,48.76666667,121.9166667,739.7,739.7,基准站,,1992年改基准站,国际交换站,,,,,
50639,内蒙古,扎兰屯,195202,200012,48,122.7333333,306.5,308.5,基本站,,,,一般站,,,,
50645,内蒙古,莫力达瓦旗,198101,201012,48.48333333,124.4833333,195,196.5,,,,,一般站,,,,
50646,黑龙江,讷河,198101,201012,48.48333333,124.85,202.8,204.4,,,,,一般站,,,,
50647,内蒙古,阿荣旗,198101,201012,48.13333333,123.4833333,236.2,237.2,,,,,一般站,,,,
50655,黑龙江,五大连池,198101,201012,48.05,126.1833333,266.8,267.7,,,,,一般站,,,,
50656,黑龙江,北安,195809,200012,48.25,126.05,278.4,276.9,基本站,,,,一般站,,,,
50658,黑龙江,克山,195101,201207,48.05,125.8833333,236,239.8,基本站,,,国际交换站,一般站,,,,
50659,黑龙江,克东,198101,201012,48.03333333,126.25,291.8,293.1,,,,,一般站,,,,
50673,黑龙江,嘉荫,198101,201012,48.88333333,130.4,90.4,92.3,,,,,一般站,,,,
50674,黑龙江,乌伊岭,198101,201012,48.56666667,129.4333333,404.5,404.9,,,,,一般站,,,,
50727,内蒙古,阿尔山,195206,201207,47.01666667,119.9333333,997.2,997.7,基本站,,,国际交换站,一般站,,,,
50739,黑龙江,龙江,198101,201012,47.03333333,123.1833333,190,191.6,,,,,一般站,,,,
50741,黑龙江,甘南,198101,201012,47.93333333,123.05,185.2,186.3,,,,,一般站,,,,
50742,黑龙江,富裕,195610,200012,47.8,124.4833333,162.7,163.8,基准站,,1994年改基准站,,一般站,,,,
50745,黑龙江,齐齐哈尔,195101,201207,47.38333333,123.9166667,147.1,148.5,基本站,,,国际交换站,一般站,,,,
50749,黑龙江,林甸,198101,201012,47.18333333,124.0833333,154.6,159.9,,,,,一般站,,,,
50750,黑龙江,依安,198101,201012,47.9,125.3,226.4,228.8,,,,,一般站,,,,
50755,黑龙江,拜泉,198101,201012,47.6,126.1,230.7,232.4,,,,,一般站,,,,
50756,黑龙江,海伦,195207,201207,47.45,126.9666667,239.2,240.4,基准站,,1992年改基准站,国际交换站,一般站,,,,
50758,黑龙江,明水,195301,200012,47.18333333,125.9,246,248.3,基本站,,,,一般站,,,,
50767,黑龙江,绥棱,198101,201012,47.23333333,127.1,202.7,204,,,,,一般站,,,,
50772,黑龙江,五营,198101,201012,48.1,129.2333333,288,299.1,,,,,一般站,,,,
50774,黑龙江,伊春,195510,200012,47.7,128.0833333,264.8,259.1,基本站,,,,一般站,,,,
50775,黑龙江,鹤岗,195511,200012,47.03333333,130.2,182.3,183.3,基本站,,,,一般站,,,,
50776,黑龙江,萝北,198101,201012,47.56666667,130.0833333,83.3,84.8,,,,,一般站,,,,
50778,黑龙江,同江,198101,201012,47.06666667,132.5333333,57.5,59.1,,,,,一般站,,,,
50779,黑龙江,抚远,198101,201012,48.36666667,134.2833333,40,41.2,,,,,一般站,,,,
50787,黑龙江,绥滨,198101,201012,47.31666667,131.0833333,62.7,63.7,,,,,一般站,,,,
50788,黑龙江,富锦,195208,201207,47.23333333,131.9833333,66.4,68.4,基本站,,,国际交换站,一般站,,,,
50834,内蒙古,索伦,195712,200012,46.6,121.2166667,499.7,501,基准站,,1992年改基准站,,一般站,,,,
50838,内蒙古,乌兰浩特,195101,200012,46.08333333,122.05,274.7,274.7,基本站,,,,,,,,
50842,黑龙江,杜蒙,198101,201012,46.08333333,124.4166667,145.4,148.9,,,,,一般站,,,,
50844,黑龙江,泰来,195801,200012,46.4,123.45,138.8,139.7,基本站,,,,一般站,,,,
50850,黑龙江,大庆,200501,201012,46.56666667,125.1333333,147.2,148.4,,,,,一般站,,,,
50851,黑龙江,青冈,198101,201012,46.68333333,126.0833333,207.4,209.2,,,,,一般站,,,,
50852,黑龙江,望奎,198101,201012,46.08333333,126.45,169.1,170.4,,,,,一般站,,,,
50853,黑龙江,绥化,195207,200012,46.61666667,126.9666667,179.6,181.2,基本站,,,,一般站,,,,
50854,黑龙江,安达,195207,201207,46.38333333,125.3166667,149.3,150.4,基本站,,,国际交换站,一般站,,,,
50858,黑龙江,肇东,198101,201012,46.06666667,125.9333333,135,136,,,,,一般站,,,,
50859,黑龙江,兰西,198101,201012,46.28333333,126.2833333,169.3,169.9,,,,,一般站,,,,
50861,黑龙江,庆安,198101,201012,46.88333333,127.4833333,182.4,183.2,,,,,一般站,,,,
50862,黑龙江,铁力,195712,200012,46.98333333,127.9833333,206,207,基本站,,,,一般站,,,,
50867,黑龙江,巴彦,198101,201012,46.08333333,127.35,134.1,134.8,,,,,一般站,,,,
50871,黑龙江,汤原,198101,201012,46.73333333,129.8833333,95.1,96.4,,,,,一般站,,,,
50873,黑龙江,佳木斯,195101,200012,46.78333333,130.3,82,83.1,基准站,,1987年改基准站,,一般站,,,,
50877,黑龙江,依兰,195901,200012,46.3,129.5833333,100.1,101.6,基本站,,,,一般站,,,,
50878,黑龙江,桦川,198101,201012,47,130.7166667,78.2,80.2,,,,,一般站,,,,
50879,黑龙江,桦南,198101,201012,46.21666667,130.55,187,190.7,,,,,一般站,,,,
50880,黑龙江,集贤,198101,201012,46.73333333,131.1166667,102.3,104.7,,,,,一般站,,,,
50884,黑龙江,双鸭山,198101,201012,46.63333333,131.15,175.3,178,,,,,一般站,,,,
50888,黑龙江,宝清,195611,200012,46.31666667,132.1833333,83,83.5,基本站,,,,一般站,,,,
50892,黑龙江,饶河,198101,201012,46.8,134,54.4,57.2,,,,,一般站,,,,
50913,内蒙古,乌拉盖,198101,201012,45.71666667,118.0833333,865,866.1,,,,,一般站,,,,
50915,内蒙古,东乌珠穆沁旗,195511,201207,45.51666667,116.9666667,838.7,838.9,基本站,,,国际交换站,一般站,,,,
50924,内蒙古,霍林郭勒,200601,201012,45.53333333,119.0666667,823.7,824.7,,,,,一般站,,,,
50928,内蒙古,巴雅尔吐胡硕,198101,201012,45.06666667,120.0333333,628.3,629.1,,,,,一般站,,,,
50934,内蒙古,突泉,198101,201012,45.38333333,121.5833333,311.7,312.7,,,,,一般站,,,,
50936,吉林,白城,195101,200012,45.63333333,122.0833333,155.3,156.2,基准站,,1993年改基准站,,一般站,,,,
50937,内蒙古,科尔沁右中旗,198101,201012,45.06666667,121.4833333,282.1,283.1,,,,,一般站,,,,
50939,吉林,洮南,198101,201012,45.03333333,122.8166667,150.8,154.9,,,,,一般站,,,,
50940,吉林,镇赉,198101,201012,45.85,123.0166667,141.1,142,,,,,一般站,,,,
50945,吉林,大安,198101,201012,45.05,124.2666667,137.6,138.7,,,,,一般站,,,,
50946,吉林,松原,198101,201012,45.18333333,124.0833333,139.8,140.7,,,,,一般站,,,,
50948,吉林,乾安,195701,200012,45,124.0166667,146.3,148,基本站,,,,一般站,,,,
50949,吉林,前郭尔罗斯,195210,201207,45.08333333,124.8666667,136.2,137.4,基本站,,,国际交换站,一般站,,,,
50950,黑龙江,肇州,198801,200012,45.7,125.25,148.7,150.2,基准站,,1988年改基准站,,一般站,,,,
50953,黑龙江,哈尔滨,195101,201207,45.93333333,126.5666667,118.3,117.7,基本站,,,国际交换站,一般站,,,,
50954,黑龙江,肇源,198101,201012,45.05,125.0833333,127.5,129.2,,,,,一般站,,,,
50956,黑龙江,呼兰,198112,201012,46.08333333,126.7666667,134.5,135.3,,,,,一般站,,,,
50958,黑龙江,阿城,198101,201012,45.53333333,126.9333333,168.2,166.6,,,,,一般站,,,,
50960,黑龙江,宾县,198101,201012,45.73333333,127.3833333,184.2,184.1,,,,,一般站,,,,
50962,黑龙江,木兰,198101,201012,45.95,128.0333333,112.1,113.5,,,,,一般站,,,,
50963,黑龙江,通河,195208,201207,45.96666667,128.7333333,108.6,110,基本站,,,国际交换站,一般站,,,,
50964,黑龙江,方正,198101,201012,45.08333333,128.8,119.3,123.2,,,,,一般站,,,,
50965,黑龙江,延寿,198101,201012,45.43333333,128.2666667,167.2,167.8,,,,,一般站,,,,
50968,黑龙江,尚志,195208,201207,45.21666667,127.9666667,189.7,191,基准站,,1992年改基准站,国际交换站,一般站,,,,
50971,黑龙江,七台河,200301,201012,45.76666667,131.0166667,223.5,226.7,,,,,一般站,,,,
50973,黑龙江,勃利,198101,201012,45.75,130.6,234.4,242.8,,,,,一般站,,,,
50978,黑龙江,鸡西,195101,201207,45.3,130.9166667,272.5,273.5,基准站,,1992年改基准站,国际交换站,一般站,,,,
50979,黑龙江,林口,198101,201012,45.26666667,130.2333333,274.7,276.9,,,,,一般站,,,,
50983,黑龙江,虎林,195612,200012,45.76666667,132.9666667,100.2,104.8,基本站,,,,一般站,,,,
50985,黑龙江,密山,198101,201012,45.55,131.8666667,151.7,155.5,,,,,一般站,,,,
50987,黑龙江,鸡东,198101,201012,45.26666667,131.1,219.9,224.6,,,,,一般站,,,,
51053,新疆,哈巴河,195711,200012,48.05,86.4,532.6,533.7,基本站,,,,一般站,,,,
51058,新疆,阿克达拉,198101,201012,47.1,87.96666667,563.3,564.3,,,,,一般站,,,,
51059,新疆,吉木乃,196008,200012,47.43333333,85.86666667,984.1,984.1,基本站,,,,,,,,
51060,新疆,布尔津,198101,201012,47.7,86.86666667,473.9,475.6,,,,,一般站,,,,
51068,新疆,福海,195711,200012,47.11666667,87.46666667,500.9,502.7,基本站,,缺199201,,一般站,,,,
51076,新疆,阿勒泰,195401,201207,47.73333333,88.08333333,735.3,736.5,基准站,,1991年改基准站,国际交换站,一般站,,,,
51087,新疆,富蕴,195510,201207,46.98333333,89.51666667,807.5,809.7,基本站,,,国际交换站,一般站,,,,
51133,新疆,塔城,195306,200012,46.73333333,83,534.9,536,基准站,,1992年改基准站,,一般站,,,,
51137,新疆,裕民,198101,201012,46.2,82.93333333,715.4,715.7,,,,,一般站,,,,
51145,新疆,额敏,198101,201012,46.55,83.65,521.6,523.6,,,,,一般站,,,,
51156,新疆,和布克赛尔,195307,201207,46.78333333,85.71666667,1291.6,1294.2,基本站,,,国际交换站,一般站,,,,
51186,新疆,青河,195710,200012,46.66666667,90.38333333,1218.2,1218.2,基本站,,,,,,,,
51232,新疆,阿拉山口,195607,200012,45.18333333,82.56666667,336.1,337.1,基本站,,,,一般站,,,,
51238,新疆,博乐,198101,201012,44.9,82.06666667,532.2,533.2,,,,,一般站,,,,
51241,新疆,托里,195610,200012,45.93333333,83.6,1077.8,1077.1,基本站,,,,一般站,,,,
51243,新疆,克拉玛依,195612,201207,45.61666667,84.85,449.5,450.7,基本站,,,国际交换站,一般站,,,,
51330,新疆,温泉,195712,200012,44.96666667,81.01666667,1354.6,1357.8,基本站,,缺195808,,,,,,
51334,新疆,精河,195301,201207,44.56666667,82.81666667,329.2,330.2,基本站,,,国际交换站,一般站,,,,
51346,新疆,乌苏,195303,200012,44.43333333,84.66666667,478.7,478.7,基准站,,1993年改基准站,,,,,,
51356,新疆,石河子,195209,200012,44.31666667,86.05,442.9,442.9,基本站,,,,,,,,
51357,新疆,沙湾,198101,201012,44.03333333,85.61666667,522.2,524.3,,,,,一般站,,,,
51359,新疆,玛纳斯,198101,201012,44.31666667,86.2,471.4,473.6,,,,,一般站,,,,
51365,新疆,蔡家湖,195810,200012,44.2,87.53333333,440.5,440.5,基本站,,,,,,,,
51367,新疆,呼图壁,198101,201012,44.01666667,86.85,575.1,576.2,,,,,一般站,,,,
51368,新疆,昌吉,198101,201012,44.11666667,87.31666667,515.7,516.7,,,,,一般站,,,,
51369,新疆,米泉,198101,201012,43.96666667,87.65,600.3,601.2,,,,,一般站,,,,
51377,新疆,阜康,198101,201012,44.01666667,87.91666667,547,547.9,,,,,一般站,,,,
51378,新疆,吉木萨尔,198101,201012,44.01666667,89.01666667,734.9,735.9,,,,,一般站,,,,
51379,新疆,奇台,195104,201207,44.01666667,89.56666667,793.5,793.5,基准站,,1987年改基准站,国际交换站,,,,,
51431,新疆,伊宁,195108,201207,43.95,81.33333333,662.5,662.5,基准站,,1992年改基准站,国际交换站,,,,,
51437,新疆,昭苏,195403,200012,43.15,81.13333333,1851,1851,基本站,,缺195508,,,,,,
51463,新疆,乌鲁木齐,195101,201207,43.78333333,87.61666667,917.9,935,基本站,,,国际交换站,,,,,
51467,新疆,巴仑台,195711,200012,42.73333333,86.3,1739,1739,基本站,,,,,,,,
51468,新疆,天山区,198101,201012,43.1,86.08333333,3539,3543.8,,,,,一般站,,,,
51469,新疆,乌市牧试站,198101,201012,43.45,87.18333333,1930,1928.5,,,,,一般站,,,,
51470,新疆,天池,198101,201012,43.88333333,88.11666667,1942.5,1943.3,,,,,一般站,,,,
51477,新疆,达坂城,195604,200012,43.35,88.31666667,1103.5,1104.4,基本站,,,,一般站,,,,
51482,新疆,木垒,198101,201012,43.08333333,90.28333333,1271.5,1272.5,,,,,一般站,,,,
51526,新疆,库米什,195811,200012,42.23333333,88.21666667,922.4,924,基本站,,,,一般站,,,,
51542,新疆,巴音布鲁克,195711,200012,43.03333333,84.15,2458,2459.4,基本站,,,,一般站,,,,
51567,新疆,焉耆,195105,200012,42.08333333,86.56666667,1055.3,1056.5,基准站,,1992年改基准站,,一般站,,,,
51571,新疆,托克逊,198101,201012,42.8,88.63333333,1,2,,,,,一般站,,,,
51572,新疆,吐鲁番东坎,198101,201012,42.08333333,89.25,-48.7,-47.4,,,,,一般站,,,,
51573,新疆,吐鲁番,195107,201207,42.93333333,89.2,34.5,35.2,基本站,,,国际交换站,一般站,,,,
51627,新疆,乌什,198101,201012,41.21666667,79.23333333,1395.8,1397.7,,,,,一般站,,,,
51628,新疆,阿克苏,195306,200012,41.01666667,80.23333333,1103.8,1105,基准站,,1991年改基准站,,一般站,,,,
51633,新疆,拜城,195810,200012,41.78333333,81.9,1229.2,1229.2,基本站,,,,,,,,
51636,新疆,新和,198101,201012,41.55,82.65,1009.8,1010.8,,,,,一般站,,,,
51639,新疆,沙雅,198101,201012,41.23333333,82.78333333,980.4,982.5,,,,,一般站,,,,
51642,新疆,轮台,195810,200012,41.78333333,84.25,976.1,976.1,基本站,,,,,,,,
51644,新疆,库车,195101,201207,41.71666667,83.06666667,1081.9,1081.9,基本站,,,国际交换站,,,,,
51656,新疆,库尔勒,195807,200012,41.75,86.13333333,931.5,932.5,基本站,,,,一般站,,,,
51701,新疆,吐尔尕特,195810,200012,40.51666667,75.4,3504.4,3504.4,基本站,,,,,,,,
51704,新疆,阿图什,198101,201012,39.71666667,76.01666667,1298.7,1299.5,,,,,一般站,,,,
51705,新疆,乌恰,195511,200012,39.71666667,75.25,2175.7,2176.7,基本站,,,,一般站,,,,
51707,新疆,伽师,198101,201012,39.05,76.73333333,1208.6,1209.6,,,,,一般站,,,,
51709,新疆,喀什,195101,201207,39.48333333,75.75,1385.6,1386.7,基准站,缺196710,1991年改基准站,国际交换站,一般站,,,,
51711,新疆,阿合奇,195701,200012,40.93333333,78.45,1984.9,1984.9,基本站,,,,,,,,
51716,新疆,巴楚,195301,201207,39.8,78.56666667,1116.5,1116.5,基本站,,缺196904-196909,国际交换站,,,,,
51717,新疆,岳普湖,198101,201012,39.25,76.78333333,1206.3,1207.8,,,,,一般站,,,,
51720,新疆,柯坪,195909,200012,40.05,79.05,1161.8,1162.5,基本站,,,,一般站,,,,
51722,新疆,阿瓦提,198101,201012,40.65,80.4,1044.3,1045.1,,,,,一般站,,,,
51730,新疆,阿拉尔,195812,200012,40.55,81.26666667,1012.2,1013.1,基本站,,,,一般站,,,,
51747,新疆,塔中,199607,201207,39,83.06666667,1099.3,1100,基本站,,1999年改基本站,国际交换站,一般站,,,,
51765,新疆,铁干里克,195701,201207,40.63333333,87.7,846,847.7,基本站,,,国际交换站,一般站,,,,
51777,新疆,若羌,195303,201207,39.03333333,88.16666667,888.3,887.7,基准站,,1993年改基准站,国际交换站,,,,,
51802,新疆,英吉沙,198101,201012,38.93333333,76.01666667,1297.5,1299.1,,,,,一般站,,,,
51804,新疆,塔什库尔干,195701,200012,37.78333333,75.23333333,3090.9,3090.1,基本站,,,,,,,,
51810,新疆,麦盖提,198101,201012,38.91666667,77.63333333,1178.2,1179.2,,,,,一般站,,,,
51811,新疆,莎车,195307,201207,38.43333333,77.26666667,1231.2,1232.2,基本站,,,国际交换站,一般站,,,,
51814,新疆,叶城,198101,201012,37.91666667,77.4,1360.4,1360.4,,,,,一般站,,,,
51815,新疆,泽普,198101,201012,38.2,77.26666667,1274.7,1275.7,,,,,一般站,,,,
51818,新疆,皮山,195901,200012,37.61666667,78.28333333,1375.4,1376.4,基本站,,,,一般站,,,,
51826,新疆,策勒,198101,201012,37.01666667,80.8,1336.5,1337,,,,,一般站,,,,
51827,新疆,墨玉,198101,201012,37.01666667,79.63333333,1348.9,1350.1,,,,,一般站,,,,
51828,新疆,和田,195302,201207,37.13333333,79.93333333,1375,1376,基准站,,1992年改基准站,国际交换站,一般站,,,,
51829,新疆,洛浦,198101,201012,37.08333333,80.01666667,1347.9,1349,,,,,一般站,,,,
51839,新疆,民丰,195612,200012,37.06666667,82.71666667,1409.5,1410.5,基准站,,1993年改基准站,,一般站,,,,
51855,新疆,且末,195305,200012,38.15,85.55,1247.2,1248.4,基本站,,,,一般站,,,,
51886,青海,茫崖,195809,200012,38.25,90.85,2944.8,2944.8,基本站,,,,,,,,
51931,新疆,于田,195511,200012,36.85,81.65,1422,1423.3,基本站,,,,一般站,,,,
52101,新疆,巴里塘,195612,200012,43.6,93.05,1679.4,1680.4,基本站,,,,一般站,,,,
52112,新疆,淖毛湖,198101,201012,43.75,94.98333333,479,480,,,,,一般站,,,,
52118,新疆,伊吾,195811,200012,43.26666667,94.7,1728.6,1729.6,基本站,,,,一般站,,,,
52203,新疆,哈密,195101,201207,42.81666667,93.51666667,737.2,738.3,基准站,,1992年改基准站,国际交换站,一般站,,,,
52267,内蒙古,额济纳旗,195911,200012,41.95,101.0666667,940.5,940.5,基准站,,1992年改基准站,,,,,,
52378,内蒙古,拐子湖,195906,200012,41.36666667,102.3666667,960,960,基本站,,,,,,,,
52418,甘肃,敦煌,195101,201207,40.15,94.68333333,1139,1139,基准站,,1987年改基准站,国际交换站,,,,,
52436,甘肃,玉门镇,195207,201207,40.26666667,97.03333333,1526,1526,基本站,,,国际交换站,,,,,
52446,甘肃,鼎新,195501,200012,40.3,99.51666667,1177.4,1177.4,基本站,,,,,,,,
52447,甘肃,金塔,198901,200012,40,98.9,1270.2,1270.5,基本站,,,,,,,,
52515,甘肃,肃北,198101,201012,39.51666667,94.86666667,2137.2,2138.6,,,,,一般站,,,,
52533,甘肃,酒泉,195101,201207,39.76666667,98.48333333,1477.2,1478.4,基准站,,1994年改基准站,国际交换站,一般站,,,,
52546,甘肃,高台,195208,200012,39.36666667,99.08333333,1332.2,1333.4,基本站,,,,一般站,,,,
52557,甘肃,临泽,198101,201012,39.15,100.0166667,1453.7,1454.9,,,,,一般站,,,,
52576,内蒙古,阿拉善右旗,195906,200012,39.21666667,101.6833333,1510.1,1510.1,基本站,,,,,,,,
52602,青海,冷湖,195609,201207,38.75,93.03333333,2770,2770.8,基本站,,,国际交换站,一般站,,,,
52633,青海,托勒,195611,200012,38.8,98.41666667,3367,3367,基本站,,,,,,,,
52643,甘肃,肃南,198101,201012,38.08333333,99.61666667,2311.8,2313,,,,,一般站,,,,
52645,青海,野牛沟,195902,200012,38.41666667,99.58333333,8320,3320,基本站,,,,,,,,
52652,甘肃,张掖,195101,200012,39.08333333,100.2833333,1461.1,1462.3,基本站,,,,一般站,,,,
52656,甘肃,民乐,198101,201012,38.43333333,100.8166667,2281.4,2282.6,,,,,一般站,,,,
52657,青海,祁连,195605,200012,38.18333333,100.25,2787.4,2787.4,基本站,,,,,,,,
52661,甘肃,山丹,195210,200012,38.8,101.0833333,1764.6,1764.6,基本站,,,,,,,,
52674,甘肃,永昌,195804,200012,38.23333333,101.9666667,1976.9,1978.1,基本站,,,,一般站,,,,
52679,甘肃,武威,195101,200012,37.91666667,102.0666667,1531.5,1532.7,基本站,,,,一般站,,,,
52681,甘肃,民勤,195301,201207,38.63333333,103.0833333,1367.5,1368.7,基准站,,1992年改基准站,国际交换站,一般站,,,,
52713,青海,大柴旦,195605,201207,37.85,95.36,3173.2,3173.2,基本站,,,国际交换站,,,,,
52737,青海,德令哈,195508,200012,37.36666667,97.36666667,2981.5,2981.5,基本站,,,,,,,,
52754,青海,刚察,195707,201207,37.33333333,100.1333333,8301.5,3302.4,基准站,,1987年改基准站,国际交换站,,,,,
52765,青海,门源,195610,200012,37.38333333,101.6166667,7850,2851,基本站,,,,,,,,
52784,甘肃,古浪,198101,201012,37.46666667,102.9,2072.4,2073.6,,,,,一般站,,,,
52787,甘肃,乌鞘岭,195101,201207,37.2,102.8666667,3045.1,3046.3,基本站,,,国际交换站,一般站,,,,
52797,甘肃,景泰,195611,200012,37.18333333,104.05,1630.9,1632.1,基本站,,,,一般站,,,,
52818,青海,格尔木,195504,201207,36.41666667,94.91666667,2807.6,2808.4,基准站,缺199312,1992年改基准站,国际交换站,一般站,,,,
52836,青海,都兰,195401,201207,36.3,98.1,3189,3189.8,基本站,,,国际交换站,一般站,,,,
52854,青海,青海湖,198101,199712,36.58333333,100.4833333,3200.8,3201.6,,,,,一般站,,,,
52856,青海,恰卜恰,195301,200012,36.26666667,100.6166667,2835,2835.8,基本站,,,,一般站,,,,
52863,青海,互助,198101,201012,36.81666667,101.95,2480,2480.8,,,,,一般站,,,,
52866,青海,西宁,195401,201207,36.73333333,101.75,2295.2,2296,基本站,,,国际交换站,一般站,,,,
52868,青海,贵德,195611,200012,36.01666667,101.3666667,2273,2273.8,基本站,,,,一般站,,,,
52869,青海,湟中,198101,201012,36.05,101.5833333,2667.5,2668.3,,,,,一般站,,,,
52875,青海,平安,198901,201012,36.05,102.1,2125,2125.8,,,,,一般站,,,,
52876,青海,民和,195610,200012,36.03333333,102.0833333,1813.9,1814.7,基准站,缺199202,1988年改基准站,,一般站,,,,
52877,青海,化隆,198101,201012,36.1,102.25,2834.7,2835.5,,,,,一般站,,,,
52881,甘肃,天祝,201001,201012,36.98333333,103.1833333,2484.8,2486,,,,,一般站,,,,
52884,甘肃,皋兰,195703,201207,36.35,103.95,1668.5,1669.7,,,,国际交换站,一般站,,,,
52885,甘肃,永登,198101,201012,36.75,103.25,2118.8,2120,,,,,一般站,,,,
52889,甘肃,兰州,195101,200012,36.05,103.8833333,1517.2,1517.2,基本站,,,,,,,,
52895,甘肃,靖远,195101,200012,36.56666667,104.6833333,1398.2,1399.4,基本站,,,,一般站,,,,
52896,甘肃,白银,198101,201012,36.55,104.15,1738.7,1739.9,,,,,一般站,,,,
52941,青海,沙珠玉,198101,199612,36.26666667,100.2666667,2872,2872.8,,,,,一般站,,,,
52943,青海,兴海,196001,200012,35.58333333,99.98333333,3323.2,3324,基准站,,1992年改基准站,,一般站,,,,
52955,青海,贵南,195701,201207,35.58333333,100.7333333,3120,3120.8,基本站,,,国际交换站,一般站,,,,
52957,青海,同德,195402,200012,35.25,100.6,3148.2,3149,基本站,,缺195810,,一般站,,,,
52963,青海,尖扎,198101,201012,35.93333333,102.0166667,2085.7,2086.5,,,,,一般站,,,,
52968,青海,泽库,195710,199012,35.03333333,101.4666667,3662.8,3663.6,一般站,缺195805,1991年改一般站,,一般站,,,,
52972,青海,循化,198101,201012,35.85,102.45,1921,1921.8,,,,,一般站,,,,
52974,青海,同仁,199101,200012,35.51666667,102.0166667,2491.4,2492.2,基本站,,,,一般站,,,,
52978,甘肃,夏河,198101,201012,35.2,102.5166667,2929.4,2930.6,,,,,一般站,,,,
52980,甘肃,永靖,198101,201012,35.96666667,103.3,1648,1649.2,,,,,一般站,,,,
52981,甘肃,东乡,198101,201012,35.68333333,103.3833333,2421,2422.2,,,,,一般站,,,,
52982,甘肃,广河,198101,201012,35.48333333,103.55,1953.2,1954.4,,,,,一般站,,,,
52983,甘肃,榆中,195101,200012,35.86666667,104.15,1874.4,1875.6,基准站,缺195205-195301,1996年改基准站,,一般站,,,,
52984,甘肃,临夏,195101,200012,35.58333333,103.1833333,1917.2,1918.4,基本站,,,,一般站,,,,
52985,甘肃,和政,198101,201012,35.41666667,103.0333333,2162.8,2164,,,,,一般站,,,,
52986,甘肃,临洮,195101,200012,35.36666667,103.8666667,1893.8,1895,基本站,,,,一般站,,,,
52988,甘肃,康乐,198101,201012,35.36666667,103.7166667,2015.8,2017,,,,,一般站,,,,
52993,甘肃,会宁,195511,199104,35.68333333,105.0666667,1739.4,1740.6,一般站,缺199102、199103,1991年改一般站,,一般站,,,,
52995,甘肃,安定,198101,201012,35.58333333,104.6166667,1897.2,1898.4,,,,,一般站,,,,
52996,甘肃,华家岭,195101,200012,35.38333333,105.0166667,2450.6,2451.8,基本站,,,,一般站,,,,
52998,甘肃,渭源,198101,201012,35.13333333,104.2,2111,2112.2,,,,,一般站,,,,
53068,内蒙古,二连浩特,195510,201207,43.63333333,111.9333333,963.1,964.1,基本站,,,国际交换站,一般站,,,,
53083,内蒙古,那仁宝力格,195712,200012,44.61666667,114.15,1181.6,1182.9,基本站,,,,一般站,,,,
53149,内蒙古,满都拉,195711,200012,42.53333333,110.1333333,1225.2,1226.7,基本站,,缺199002,,一般站,,,,
53192,内蒙古,阿巴嘎,195206,201207,44.01666667,114.95,1126.1,1127.3,基准站,,1992年改基准站,国际交换站,一般站,,,,
53195,内蒙古,苏尼特左旗,195512,200012,43.86666667,113.6333333,1036.7,1036.7,基本站,,,,,,,,
53231,内蒙古,海力素,197010,200012,41.4,106.4,1509.6,1510.6,基本站,,,,一般站,,,,
53276,内蒙古,朱日和,195205,201207,42.4,112.9,1150.8,1150.8,基准站,,1987年改基准站,国际交换站,,,,,
53289,内蒙古,镶黄旗,198101,201012,42.23333333,113.0833333,1322.1,1322.8,,,,,一般站,,,,
53336,内蒙古,乌拉特后旗,195401,201207,41.56666667,108.5166667,1288,1289.2,基准站,,1989年改基准站,国际交换站,一般站,,,,
53337,内蒙古,五原,198101,201012,41.1,108.2666667,1023.7,1025.4,,,,,一般站,,,,
53348,内蒙古,大佘太,198101,201012,41.01666667,109.1333333,1078.7,1080.5,,,,,一般站,,,,
53352,内蒙古,达茂旗,195312,201207,41.7,110.4333333,1376.6,1376.2,基本站,,,国际交换站,一般站,,,,
53357,内蒙古,固阳,198101,201012,41.03333333,110.05,1360.4,1362.1,,,,,一般站,,,,
53362,内蒙古,四子王旗,195901,200012,41.53333333,111.6833333,1490.1,1491.4,基本站,,,,一般站,,,,
53367,内蒙古,希拉穆仁,198101,201012,41.31666667,111.2333333,1602.3,1603.7,,,,,一般站,,,,
53368,内蒙古,武川,198101,201012,41.08333333,111.4666667,1637.3,1640.2,,,,,一般站,,,,
53378,内蒙古,察右中旗,198101,201012,41.28333333,112.6166667,1737.3,1737.9,,,,,一般站,,,,
53384,内蒙古,察右后旗,198101,201012,41.45,113.1833333,1423.5,1424.9,,,,,一般站,,,,
53385,内蒙古,商都,198101,201012,41.6,113.5333333,1420,1420.9,,,,,一般站,,,,
53391,内蒙古,化德,195212,201207,41.9,114,1482.7,1484.6,基本站,,,国际交换站,一般站,,,,
53392,河北,康保,198101,201012,41.85,114.6,1422.4,1423.5,,,,,一般站,,,,
53397,河北,尚义,198101,201012,41.1,113.9833333,1376.5,1377.7,,,,,一般站,,,,
53399,河北,张北,198901,200012,41.15,114.7,1393.3,1394.4,基准站,,1989年改基准站,,一般站,,,,
53419,内蒙古,磴口,198101,201012,40.03333333,107,1055.3,1060.4,,,,,一般站,,,,
53420,内蒙古,杭锦后旗,195401,199502,40.85,107.1166667,1024,1024.9,一般站,缺195508、199109、199206、199302、199305、199308、199410、199411,1991年改一般站,,一般站,,,,
53433,内蒙古,乌拉特前旗,198101,201012,40.73333333,108.65,1020.4,1022,,,,,一般站,,,,
53446,内蒙古,包头,195101,200012,40.53333333,109.8833333,1004.7,1005.9,基本站,,缺195401、195402,,一般站,,,,
53455,内蒙古,土右旗,198101,201012,40.55,110.5333333,998.6,1000.9,,,,,一般站,,,,
53457,内蒙古,达拉特,198101,201012,40.4,110.0333333,1011,1012.2,,,,,一般站,,,,
53463,内蒙古,呼和浩特,195102,201207,40.85,111.5666667,1153.5,1154.4,基本站,,,国际交换站,一般站,,,,
53464,内蒙古,土默特左旗,198101,201012,40.71666667,111.0166667,1042.7,1047.5,,,,,一般站,,,,
53466,内蒙古,呼和浩特郊区站,199101,201012,40.75,111.7,1045.4,1046.6,,,,,一般站,,,,
53467,内蒙古,托克托,198101,201012,40.26666667,111.1833333,1016,1017.5,,,,,一般站,,,,
53469,内蒙古,和林格尔,198101,201012,40.4,111.8166667,1166.7,1164,,,,,一般站,,,,
53472,内蒙古,卓资,198101,201012,40.86666667,112.5666667,1451.7,1453.2,,,,,一般站,,,,
53475,内蒙古,凉城,198101,201012,40.51666667,112.4666667,1268.9,1272.2,,,,,一般站,,,,
53478,山西,右玉,195701,200012,40,112.45,1345.8,1346.7,基本站,,,,一般站,,,,
53480,内蒙古,集宁,195401,200012,41.03333333,113.0666667,1419.3,1421.5,基本站,,,,一般站,,,,
53481,内蒙古,察右前旗,198101,201012,40.8,113.2166667,1316.8,1317.1,,,,,一般站,,,,
53483,内蒙古,兴和,198101,201012,40.86666667,113.0833333,1268.7,1269.9,,,,,一般站,,,,
53484,内蒙古,丰镇,198101,201012,40.45,113.15,1191.5,1192.9,,,,,一般站,,,,
53486,山西,阳高,198101,201012,40.36666667,113.7666667,1050.3,1051.2,,,,,一般站,,,,
53487,山西,大同,195501,201207,40.08333333,113.4166667,1052.6,1053.6,基准站,,1994年改基准站,国际交换站,一般站,,,,
53488,山西,大同县,198101,201012,40.03333333,113.5833333,1034.3,1035.4,,,,,一般站,,,,
53490,山西,天镇,198101,201012,40.43333333,114.05,1014.7,1015.7,,,,,一般站,,,,
53491,河北,怀安,198101,201012,40.06666667,114.3833333,837.7,838.8,,,,,一般站,,,,
53492,河北,阳原,198101,201012,40.1,114.15,937.6,938.7,,,,,一般站,,,,
53498,河北,宣化,198101,201012,40.56666667,115.0333333,629.3,630.5,,,,,一般站,,,,
53499,河北,万全,198101,201012,40.76666667,114.7333333,755.2,756.2,,,,,一般站,,,,
53502,内蒙古,吉兰太,195501,201207,39.78333333,105.75,1031.8,1031.8,基本站,,,国际交换站,,,,,
53512,内蒙古,乌海,198101,201012,39.8,106.8,1105.6,1105.8,,,,,一般站,,,,
53513,内蒙古,临河,195611,200012,40.73333333,107.3666667,1041.1,1042.3,基本站,,,,一般站,,,,
53517,宁夏,石炭井,198101,201012,39.26666667,106.0333333,1464.5,1466.4,,,,,一般站,,,,
53518,宁夏,石嘴山,198101,201012,39.03333333,106.35,1117.7,1118.7,,,,,一般站,,,,
53519,宁夏,惠农,195701,200012,39.21666667,106.7666667,1092.5,1093.1,基本站,,,,一般站,,,,
53522,内蒙古,伊克乌素,198101,201012,40.05,107.0833333,1180.3,1181.4,,,,,一般站,,,,
53529,内蒙古,鄂托克,195410,201207,39.08333333,107.9666667,1381.4,1381.7,基本站,,,国际交换站,一般站,,,,
53533,内蒙古,杭锦旗,198101,201012,39.81666667,108.7166667,1414,1414.4,,,,,一般站,,,,
53543,内蒙古,东胜,195612,200012,39.08333333,109.9833333,1461.9,1462.8,基准站,,1991年改基准站,,一般站,,,,
53545,内蒙古,伊金霍洛,195811,199502,39.56666667,109.7166667,1367,1367.3,一般站,缺196811-196905、199302、199305、199307、199308、199311、199402 199407、199408、199410、199411,1991年改一般站,,一般站,,,,
53553,内蒙古,准格尔,198101,201012,39.86666667,111.2166667,1221.4,1222.9,,,,,一般站,,,,
53562,内蒙古,清水河,198101,201012,39.91666667,111.0666667,1187.4,1192.2,,,,,一般站,,,,
53564,山西,河曲,195411,200012,39.38333333,111.15,861.5,862.5,基本站,,,,一般站,,,,
53565,山西,偏关,198101,201012,39.43333333,111.05,1051.7,1050.8,,,,,一般站,,,,
53567,陕西,府谷,198101,201012,39.01666667,111,1024.3,1025.1,,,,,一般站,,,,
53573,山西,左云,198101,201012,40,112.7,1336.3,1337.7,,,,,一般站,,,,
53574,山西,平鲁,198101,201012,39.51666667,112.2666667,1409.4,1408.6,,,,,一般站,,,,
53575,山西,神池,198101,201012,39.1,112.2,1525.4,1526.2,,,,,一般站,,,,
53576,山西,山阴,198101,201012,39.05,112.8166667,1045,1045.9,,,,,一般站,,,,
53577,山西,宁武,198101,201012,39,112.3,1437.4,1438.7,,,,,一般站,,,,
53578,山西,朔州,198101,201012,39.36666667,112.4333333,1114.8,1115.7,,,,,一般站,,,,
53579,山西,代县,198101,201012,39.01666667,112.9,859.7,860.6,,,,,一般站,,,,
53582,山西,浑源,198101,201012,39.71666667,113.0666667,1079.2,1080.7,,,,,一般站,,,,
53584,山西,应县,198101,201012,39.56666667,113.0166667,1000.7,1001.9,,,,,一般站,,,,
53585,山西,繁峙,198101,201012,39.01666667,113.2666667,933.9,935.2,,,,,一般站,,,,
53588,山西,五台山,195601,200012,38.95,113.5166667,2208.3,2209.3,基本站,,,,一般站,,,,
53590,山西,广灵,198101,201012,39.75,114.2666667,977.8,979.4,,,,,一般站,,,,
53593,河北,蔚县,195401,200012,39.08333333,114.5666667,909.5,910.5,基本站,,,,一般站,,,,
53594,山西,灵丘,198101,201012,39.45,114.1833333,938.7,939.7,,,,,一般站,,,,
53596,河北,顺平,198101,201012,38.85,115.1333333,52.2,53.4,,,,,一般站,,,,
53599,河北,涞源,198101,201012,39.36666667,114.6833333,884.4,885.6,,,,,一般站,,,,
53602,内蒙古,阿拉善左旗,195212,200012,38.83333333,105.6666667,1561.4,1561.4,基本站,,,,,,,,
53603,宁夏,沙湖,200701,201012,38.08333333,106.3666667,1095,1096,,,,,一般站,,,,
53610,宁夏,贺兰,198101,201012,38.56666667,106.35,1106.2,1107,,,,,一般站,,,,
53611,宁夏,平罗,198101,201012,38.88333333,106.55,1098.7,1099.4,,,,,一般站,,,,
53612,宁夏,吴忠,198101,201012,37.98333333,106.1833333,1128.8,1132.2,,,,,一般站,,,,
53614,宁夏,银川,195101,201207,38.46666667,106.2,1110.9,1111.6,基准站,,1988年改基准站,国际交换站,一般站,,,,
53615,宁夏,陶乐,195901,200012,38.8,106.7,1101.6,1102.9,基本站,,,,一般站,,,,
53617,宁夏,青铜峡,198101,201012,38.03333333,106.0833333,1118,1119.2,,,,,一般站,,,,
53618,宁夏,永宁,198101,201012,38.28333333,106.25,1113.7,1115.5,,,,,一般站,,,,
53619,宁夏,灵武,198101,201012,38.11666667,106.3,1115.9,1117.3,,,,,一般站,,,,
53644,内蒙古,乌审旗,198101,201012,38.6,108.0833333,1307.2,1309.3,,,,,一般站,,,,
53646,陕西,榆林,195101,201207,38.26666667,109.7833333,1157,1157.8,基本站,,,国际交换站,一般站,,,,
53651,陕西,神木,198101,201012,38.81666667,110.4666667,1098,1099.1,,,,,一般站,,,,
53658,陕西,佳县,198101,201012,38.03333333,110.4833333,894.4,895.4,,,,,一般站,,,,
53659,山西,临县,198101,201012,37.96666667,111,1163.3,1164.1,,,,,一般站,,,,
53660,山西,保德,198101,201012,39.01666667,111.0833333,894.4,893.5,,,,,一般站,,,,
53662,山西,岢岚,198101,201012,38.71666667,111.5833333,1396.7,1397.7,,,,,一般站,,,,
53663,山西,五寨,195701,200012,38.91666667,111.8166667,1401,1402,基本站,,,,一般站,,,,
53664,山西,兴县,195501,200012,38.46666667,111.1333333,1012.6,1013.6,基本站,,,,一般站,,,,
53665,山西,岚县,198101,201012,38.28333333,111.65,1185.1,1186,,,,,一般站,,,,
53666,山西,静乐,198101,201012,38.35,111.9333333,1212.2,1214.1,,,,,一般站,,,,
53669,山西,娄烦,198101,201012,38.08333333,111.8,1150.3,1151.5,,,,,一般站,,,,
53673,山西,原平,195401,201207,38.73333333,112.7166667,828.2,829.6,基本站,,,国际交换站,一般站,,,,
53674,山西,忻府区,198101,201012,38.4,112.7,869.9,870.7,,,,,一般站,,,,
53676,山西,定襄,198101,201012,38.05,112.9833333,759.4,760.9,,,,,一般站,,,,
53677,山西,尖草坪区,198101,201012,37.93333333,112.4833333,806.5,807.4,,,,,一般站,,,,
53678,山西,阳曲,198101,201012,38.06666667,112.65,897.1,902.1,,,,,一般站,,,,
53679,山西,小店区,198101,201012,37.75,112.55,776.2,777.2,,,,,一般站,,,,
53680,河北,灵寿,198101,201012,38.3,114.3833333,108.9,110.1,,,,,一般站,,,,
53681,山西,五台县,198101,201012,38.08333333,113.3666667,1096.2,1097.7,,,,,一般站,,,,
53682,河北,曲阳,198101,201012,38.63333333,114.6833333,104.1,105.3,,,,,一般站,,,,
53685,山西,盂县,198101,201012,38.06666667,113.4166667,953.2,953.8,,,,,一般站,,,,
53687,山西,平定,198101,201012,37.78333333,113.6333333,753,753.8,,,,,一般站,,,,
53688,河北,行唐,198101,201012,38.41666667,114.55,100.3,101.8,,,,,一般站,,,,
53689,河北,晋州,198101,201012,38.01666667,115.0666667,42.4,43.5,,,,,一般站,,,,
53690,河北,阜平,198101,201012,38.85,114.1833333,281.9,283.1,,,,,一般站,,,,
53691,河北,正定,198101,201012,38.15,114.5666667,71,72.1,,,,,一般站,,,,
53692,河北,唐县,198101,201012,38.73333333,114.9833333,66.5,67.6,,,,,一般站,,,,
53693,河北,井陉,198101,201012,38.03333333,114.1333333,255.5,256.6,,,,,一般站,,,,
53694,河北,平山,198101,201012,38.26666667,114.2166667,131,132,,,,,一般站,,,,
53695,河北,新乐,198101,201012,38.35,114.6833333,70.8,72,,,,,一般站,,,,
53696,河北,定州,198101,201012,38.55,115.0166667,41.4,42.3,,,,,一般站,,,,
53697,河北,藁城,198101,201012,38.03333333,114.0833333,53.5,54.6,,,,,一般站,,,,
53698,河北,石家庄,195501,201207,38.03333333,114.4166667,81,81,基本站,,,国际交换站,,,,,
53699,河北,无极,198101,201012,38.18333333,114.95,45.4,46.6,,,,,一般站,,,,
53704,宁夏,中卫,195901,199012,37.53333333,105.1833333,1225.7,1226.6,一般站,,1991年撤消,,一般站,,,,
53705,宁夏,中宁,195301,200012,37.48333333,105.6833333,1183.4,1184.4,基本站,,,,一般站,,,,
53707,宁夏,兴仁,198101,201012,36.93333333,105.25,1697.9,1699,,,,,一般站,,,,
53723,宁夏,盐池,195401,201207,37.8,107.3833333,1349.3,1350.4,基本站,,,国际交换站,一般站,,,,
53725,陕西,定边,198901,200012,37.58333333,107.5833333,1360.3,1361.2,基准站,,1989年改基准站,,一般站,,,,
53727,宁夏,麻黄山,198101,201012,37.01666667,107.1166667,1712.5,1713.5,,,,,一般站,,,,
53730,内蒙古,鄂托克前旗,198101,201012,38.18333333,107.4833333,1333.3,1335,,,,,一般站,,,,
53732,内蒙古,河南,198101,201012,37.85,108.7166667,1209.9,1211.5,,,,,一般站,,,,
53735,陕西,靖边,198101,201012,37.61666667,108.8,1336.7,1337.8,,,,,一般站,,,,
53738,陕西,吴旗,195610,200012,36.91666667,108.0166667,1331.4,1331.1,基本站,,缺196806-196809,,一般站,,,,
53740,陕西,横山,195401,200012,37.93333333,109.2333333,1111,1107.5,基本站,,,,一般站,,,,
53748,陕西,子长,198101,201012,37.18333333,109.7,1063.3,1064.4,,,,,一般站,,,,
53750,陕西,米脂,198101,201012,37.76666667,110.1833333,931,931.6,,,,,一般站,,,,
53751,陕西,子洲,198101,201012,37.6,110.05,894.6,895.8,,,,,一般站,,,,
53753,山西,柳林,198101,201012,37.43333333,110.8833333,860.1,861,,,,,一般站,,,,
53754,陕西,绥德,195301,200012,37.05,110.2166667,929.7,930.7,基准站,,1993年改基准站,,一般站,,,,
53756,陕西,吴堡,198101,201012,37.51666667,110.7166667,744,745,,,,,一般站,,,,
53757,陕西,清涧,198101,201012,37.11666667,110.1166667,938,938.8,,,,,一般站,,,,
53759,山西,石楼,198101,201012,36.98333333,110.0833333,1109.1,1110.7,,,,,一般站,,,,
53760,山西,方山,198101,201012,37.88333333,111.2333333,1212.4,1213.3,,,,,一般站,,,,
53763,山西,古交,198101,201012,37.91666667,112.0166667,1006.8,1008,,,,,一般站,,,,
53764,山西,离石,195701,200012,37.05,111.1,950.8,951.7,基本站,,缺196903-196907,,一般站,,,,
53767,山西,中阳,198101,201012,37.03333333,111.0166667,1213.1,1212.2,,,,,一般站,,,,
53768,山西,孝义,198101,201012,37.15,111.75,773.4,774.3,,,,,一般站,,,,
53769,山西,汾阳,198101,201012,37.25,111.7833333,747.7,749.1,,,,,一般站,,,,
53770,山西,祁县,198101,201012,37.35,112.35,768.8,769.9,,,,,一般站,,,,
53771,山西,文水,198101,201012,37.41666667,112.05,750,751.3,,,,,一般站,,,,
53772,山西,太原,195101,201207,37.61666667,112.5833333,776.3,777.3,基准站,,1987年改基准站,国际交换站,一般站,,,,
53773,河北,临漳,198101,201012,36.03333333,114.6166667,64.6,65.8,,,,,一般站,,,,
53774,山西,清徐,198101,201012,37.58333333,112.3666667,759.9,760.9,,,,,一般站,,,,
53775,山西,太谷,198101,201012,37.41666667,112.6,785.8,786.7,,,,,一般站,,,,
53776,山西,榆次,198101,201012,37.68333333,112.7666667,831.2,831.5,,,,,一般站,,,,
53777,山西,交城,198101,201012,37.53333333,112.15,759.3,760.2,,,,,一般站,,,,
53778,山西,平遥,198101,201012,37.01666667,112.2166667,780.3,780.9,,,,,一般站,,,,
53780,山西,寿阳,198101,201012,37.9,113.15,1066.1,1067.6,,,,,一般站,,,,
53781,河北,沙河,198101,201012,36.86666667,114.4666667,67.9,69,,,,,一般站,,,,
53782,山西,阳泉,195412,200012,37.93333333,113.6166667,767.2,768.9,基本站,,,,一般站,,,,
53783,山西,昔阳,198101,201012,37.6,113.7,876.2,880.3,,,,,一般站,,,,
53784,河北,赵县,198101,201012,37.75,114.7833333,38.5,39.6,,,,,一般站,,,,
53785,河北,柏乡,198101,201012,37.51666667,114.0666667,35,36.2,,,,,一般站,,,,
53786,山西,左权,198101,201012,37.08333333,113.0333333,1152.5,1154,,,,,一般站,,,,
53787,山西,榆社,195701,200012,37.06666667,112.9833333,1041.4,1042.3,基准站,,1992年改基准站,,一般站,,,,
53788,山西,和顺,198101,201012,37.03333333,113.5666667,1265.7,1267,,,,,一般站,,,,
53789,河北,栾城,198101,201012,37.88333333,114.6333333,52.9,54,,,,,一般站,,,,
53790,河北,高邑,198101,201012,37.63333333,114.6,44.5,45.7,,,,,一般站,,,,
53791,河北,元氏,198101,201012,37.76666667,114.5166667,66.4,67.5,,,,,一般站,,,,
53792,河北,临城,198101,201012,37.45,114.4833333,113,114.2,,,,,一般站,,,,
53794,河北,隆尧,198101,201012,37.35,114.75,33.1,34.3,,,,,一般站,,,,
53795,河北,赞皇,198101,201012,37.65,114.3666667,137.4,138.5,,,,,一般站,,,,
53796,河北,宁晋,198101,201012,37.61666667,114.8833333,30.6,31.8,,,,,一般站,,,,
53797,河北,内邱,198101,201012,37.28333333,114.5166667,73.9,75.1,,,,,一般站,,,,
53798,河北,邢台,195401,200012,37.06666667,114.05,77.3,78.5,基准站,,1987年改基准站,,一般站,,,,
53799,河北,巨鹿,198101,201012,37.23333333,114.9833333,25.9,27.1,,,,,一般站,,,,
53806,宁夏,海源,195712,200012,36.56666667,105.65,1854.2,1854.8,基本站,,,,一般站,,,,
53810,宁夏,同心,195501,200012,36.96666667,105.9,1339.3,1340.7,基本站,,,,一般站,,,,
53817,宁夏,固原,195610,200012,36,106.2666667,1753,1754.2,基准站,,1987年改基准站,,一般站,,,,
53821,甘肃,环县,195701,200012,36.56666667,107.3,1255.6,1256.8,基本站,,,,一般站,,,,
53829,甘肃,庆城,198101,201012,35.98333333,107.9,1093.7,1094.9,,,,,一般站,,,,
53832,陕西,志丹,198101,201012,36.76666667,108.7666667,1218.8,1220,,,,,一般站,,,,
53841,陕西,安塞,198101,201012,36.88333333,109.3166667,1068.3,1069.1,,,,,一般站,,,,
53845,陕西,延安,195101,201207,36.6,109.5,958.5,958.5,基本站,,,国际交换站,,,,,
53848,陕西,甘泉,198101,201012,36.26666667,109.35,1005.5,1005.4,,,,,一般站,,,,
53850,陕西,延川,198101,201012,36.88333333,110.1833333,804.9,805.7,,,,,一般站,,,,
53852,山西,永和,198101,201012,36.76666667,110.6333333,916.6,917.5,,,,,一般站,,,,
53853,山西,隰县,195701,200012,36.7,110.95,1052.7,1053.6,基本站,,,,一般站,,,,
53854,陕西,延长,198101,201012,36.58333333,110.0666667,804.8,805.5,,,,,一般站,,,,
53856,山西,大宁,198101,201012,36.46666667,110.75,765.9,766.8,,,,,一般站,,,,
53857,陕西,宜川,198101,201012,36.06666667,110.1833333,840.3,841.1,,,,,一般站,,,,
53859,山西,吉县,198101,201012,36.1,110.0666667,851.3,852.3,,,,,一般站,,,,
53860,山西,交口,198101,201012,36.98333333,111.0166667,1406.7,1407.2,,,,,一般站,,,,
53861,山西,襄汾,198101,201012,35.88333333,111.3833333,463.5,460.5,,,,,一般站,,,,
53862,山西,灵石,198101,201012,36.85,111.8,811.7,812.5,,,,,一般站,,,,
53863,山西,介休,195401,201207,37.03333333,111.9166667,743.9,745.4,基本站,,,国际交换站,一般站,,,,
53864,山西,蒲县,198101,201012,36.4,111.1,1030.6,1031.1,,,,,一般站,,,,
53865,山西,汾西,198101,201012,36.65,111.55,1011.9,1013.1,,,,,一般站,,,,
53866,山西,洪洞,198101,201012,36.23333333,111.0666667,462.8,464.1,,,,,一般站,,,,
53868,山西,临汾,195401,200012,36.06666667,111.05,449.5,450.4,基本站,,,,一般站,,,,
53869,山西,霍州,198101,201012,36.58333333,111.7,550,551.2,,,,,一般站,,,,
53871,山西,武乡,198101,201012,36.08333333,112.85,964.1,965.8,,,,,一般站,,,,
53872,山西,沁县,198101,201012,36.76666667,112.6833333,960.7,961.6,,,,,一般站,,,,
53873,山西,长子,198101,201012,36.1,112.8666667,951.1,952.5,,,,,一般站,,,,
53874,山西,古县,198101,201012,36.25,111.9,648.7,650,,,,,一般站,,,,
53875,山西,沁源,198101,201012,36.51666667,112.35,1000,1001,,,,,一般站,,,,
53877,山西,安泽,198101,201012,36.01666667,112.25,860.1,861,,,,,一般站,,,,
53878,山西,黎城,198101,201012,36.51666667,113.3833333,767.9,769.1,,,,,一般站,,,,
53879,山西,屯留,198101,201012,36.31666667,112.8833333,952.3,953.2,,,,,一般站,,,,
53880,山西,潞城,198101,201012,36.03333333,113.2333333,947.6,948.9,,,,,一般站,,,,
53881,宁夏,韦州,198101,201012,37.28333333,106.4833333,1382.2,1382.9,,,,,一般站,,,,
53882,山西,长治,198601,200012,36.06666667,113.0333333,1046.9,1047.9,基本站,,,,一般站,,,,
53883,河北,任县,198101,201012,37.13333333,114.7,36.5,37.7,,,,,一般站,,,,
53884,山西,襄垣,198101,201012,36.51666667,113.0333333,877.9,878.8,,,,,一般站,,,,
53885,山西,壶关,198101,201012,36.11666667,113.2,1122,1123.2,,,,,一般站,,,,
53886,河北,涉县,198101,201012,36.56666667,113.0666667,470.4,471.6,,,,,一般站,,,,
53887,山西,晋东南,195312,198512,21.03333333,109.1,926.5,926.5,一般站,缺196802、196803,1986年业务改位,,,,,,
53888,山西,平顺,198101,201012,36.2,113.4333333,1089.2,1088.6,,,,,一般站,,,,
53889,河南,林州,198101,201012,36.06666667,113.8166667,306.8,308.6,,,,,一般站,,,,
53890,河北,武安,198101,201012,36.06666667,114.1,280.1,281.3,,,,,一般站,,,,
53891,河北,南和,198101,201012,37.01666667,114.6833333,43,44.2,,,,,一般站,,,,
53892,河北,邯郸,198101,201012,36.61666667,114.4666667,66.6,67.7,,,,,一般站,,,,
53893,河北,曲周,198101,201012,36.76666667,114.95,39.6,40.8,,,,,一般站,,,,
53894,河北,峰峰,198101,201012,36.4,114.2,149.3,150.5,,,,,一般站,,,,
53895,河北,永年,198101,201012,36.78333333,114.05,60.6,61.8,,,,,一般站,,,,
53896,河北,魏县,198101,201012,36.35,114.95,50.1,51.3,,,,,一般站,,,,
53897,河北,磁县,198101,201012,36.38333333,114.3833333,69.7,70.9,,,,,一般站,,,,
53898,河南,安阳,195101,201207,36.05,114.1333333,194.8,195.7,基本站,,,国际交换站,一般站,,,,
53899,河北,广平,198101,201012,36.48333333,114.9666667,48.5,49.7,,,,,一般站,,,,
53903,宁夏,西吉,195702,200012,35.96666667,105.7166667,1916.5,1917.9,基本站,,,,一般站,,,,
53906,甘肃,静宁,198101,201012,35.51666667,105.7166667,1656.4,1657.6,,,,,一般站,,,,
53908,甘肃,通渭,198101,201012,35.21666667,105.2333333,1768.2,1769.4,,,,,一般站,,,,
53910,宁夏,六盘山,198101,201012,35.06666667,106.2,2841.2,2839.1,,,,,一般站,,,,
53914,宁夏,隆德,198101,201012,35.61666667,106.1166667,2078.6,2079.5,,,,,一般站,,,,
53915,甘肃,平凉,195101,201207,35.55,106.0666667,1346.6,1347.8,基本站,,,国际交换站,一般站,,,,
53916,宁夏,泾源,198101,201012,35.05,106.3166667,1948.6,1949.1,,,,,一般站,,,,
53917,甘肃,庄浪,198101,201012,35.21666667,106.0666667,1631,1632.2,,,,,一般站,,,,
53923,甘肃,西峰,195101,200012,35.73333333,107.6333333,1421,1422.2,基准站,,1988年改基准站,,一般站,,,,
53924,甘肃,灵台,198101,201012,35.06666667,107.6166667,966.6,967.8,,,,,一般站,,,,
53925,甘肃,镇原,198101,201012,35.68333333,107.1833333,1172.5,1173.7,,,,,一般站,,,,
53926,甘肃,泾川,198101,201012,35.35,107.35,1028.8,1030,,,,,一般站,,,,
53927,甘肃,华亭,198101,201012,35.2,106.6166667,1477.6,1478.8,,,,,一般站,,,,
53928,甘肃,崇信,198101,201012,35.3,107.0166667,1149.1,1150.3,,,,,一般站,,,,
53929,陕西,长武,195609,200012,35.2,107.8,1206.5,1206.8,基本站,,,,一般站,,,,
53930,甘肃,华池,198101,201012,36.45,107.9833333,1271,1272.2,,,,,一般站,,,,
53931,陕西,富县,198101,201012,36,109.3666667,984,984.8,,,,,一般站,,,,
53934,甘肃,合水,198101,201012,35.78333333,107.9833333,1274.2,1275.7,,,,,一般站,,,,
53935,甘肃,正宁,198101,201012,35.48333333,108.4,1481.9,1483.1,,,,,一般站,,,,
53937,甘肃,宁县,198101,201012,35.51666667,107.9166667,979.4,980.6,,,,,一般站,,,,
53938,陕西,旬邑,198101,201012,35.01666667,108.3,1277,1277.9,,,,,一般站,,,,
53941,陕西,白水,198101,201012,35.18333333,109.5833333,804.4,807.1,,,,,一般站,,,,
53942,陕西,洛川,195411,200012,35.76666667,109.4166667,1155.9,1156.9,基准站,,1994年改基准站,,一般站,,,,
53944,陕西,黄陵,198101,201012,35.56666667,109.25,863,857.3,,,,,一般站,,,,
53945,陕西,宜君,198101,201012,35.43333333,109.0666667,1395.2,1394.4,,,,,一般站,,,,
53946,陕西,黄龙,198101,201012,35.6,109.8166667,1091,1091,,,,,一般站,,,,
53947,陕西,铜川,195501,199812,35.08333333,109.0666667,978.9,979.7,基本站,,1999年改一般站其业务由57037代,,一般站,,,,
53948,陕西,蒲城,198101,201012,34.95,109.5833333,499.2,499.9,,,,,一般站,,,,
53949,陕西,澄城,198101,201012,35.18333333,109.9166667,679.1,680.4,,,,,一般站,,,,
53950,陕西,合阳,198101,201012,35.23333333,110.15,708.8,709.9,,,,,一般站,,,,
53953,山西,乡宁,198101,201012,35.96666667,110.85,965.3,966.2,,,,,一般站,,,,
53954,山西,稷山,198101,201012,35.61666667,110.9666667,433.5,433.5,,,,,一般站,,,,
53956,山西,万荣,198101,201012,35.4,110.0833333,588.4,589.6,,,,,一般站,,,,
53957,山西,河津,198101,201012,35.61666667,110.7166667,459.2,460,,,,,一般站,,,,
53958,山西,临猗,198101,201012,35.01666667,110.7833333,435.6,436.7,,,,,一般站,,,,
53959,山西,运城,195601,201207,35.05,111.05,365,366.7,基本站,,,国际交换站,一般站,,,,
53961,山西,曲沃,198101,201012,35.65,111.4833333,472.6,473.4,,,,,一般站,,,,
53962,山西,翼城,198101,201012,35.73333333,111.7,584.5,585.3,,,,,一般站,,,,
53963,山西,侯马,199101,200012,35.65,111.3666667,433.8,435.1,基准站,,1991年改基准站,,一般站,,,,
53964,山西,新绛,198101,201012,35.61666667,111.2166667,430.8,431.8,,,,,一般站,,,,
53965,山西,绛县,198101,201012,35.51666667,111.5666667,761,761.9,,,,,一般站,,,,
53966,山西,浮山,198101,201012,35.98333333,111.0833333,817.2,818.1,,,,,一般站,,,,
53967,山西,闻喜,198101,201012,35.03333333,111.2,468.3,469.8,,,,,一般站,,,,
53968,山西,垣曲,198101,201012,35.28333333,111.0666667,505,505.9,,,,,一般站,,,,
53970,山西,沁水,198101,201012,35.7,112.2,887.3,887.1,,,,,一般站,,,,
53972,河南,沁阳,198101,201012,35.05,112.9,117.5,118.5,,,,,一般站,,,,
53973,山西,高平,198101,201012,35.76666667,112.95,837.3,836.6,,,,,一般站,,,,
53974,河南,淇县,198101,201012,35.61666667,114.2333333,70.4,71.3,,,,,一般站,,,,
53975,山西,阳城,195701,200012,35.48333333,112.4,659.5,661.1,基本站,,,,一般站,,,,
53976,山西,晋城,198101,201012,35.05,112.8666667,752.6,753.6,,,,,一般站,,,,
53978,河南,济源,198101,201012,35.08333333,112.6333333,140.1,140.9,,,,,一般站,,,,
53979,河南,博爱,198101,201012,35.15,113.0833333,120,121.1,,,,,一般站,,,,
53980,河北,肥乡,198101,201012,36.55,114.8,50.2,51.3,,,,,一般站,,,,
53981,山西,陵川,198101,201012,35.78333333,113.2666667,1311.6,1313.2,,,,,一般站,,,,
53982,河南,焦作,198101,201012,35.23333333,113.2666667,112,113.5,,,,,一般站,,,,
53983,河南,封丘,198101,201012,35.03333333,114.4166667,69.6,70.8,,,,,一般站,,,,
53984,河南,修武,198101,201012,35.23333333,113.4666667,82.7,83.7,,,,,一般站,,,,
53985,河南,辉县,198101,201012,35.05,113.8166667,140.7,142.2,,,,,一般站,,,,
53986,河南,新乡,195101,200012,35.31666667,113.8833333,73.2,74.2,基本站,,,,一般站,,,,
53987,河南,武陟,198101,201012,35.1,113.35,94.5,95.5,,,,,一般站,,,,
53988,河南,获嘉,198101,201012,35.26666667,113.0666667,77.6,78.8,,,,,一般站,,,,
53989,河南,原阳,198101,201012,35.08333333,113.9833333,75.9,76.9,,,,,一般站,,,,
53991,河南,汤阴,198101,201012,35.91666667,114.0333333,93,93.9,,,,,一般站,,,,
53992,河南,浚县,198101,201012,35.65,114.5166667,58.2,59.2,,,,,一般站,,,,
53993,河南,内黄,198101,201012,35.93333333,114.9166667,51.6,52.4,,,,,一般站,,,,
53994,河南,卫辉,198101,201012,35.38333333,114.0666667,70,71.2,,,,,一般站,,,,
53995,河南,滑县,198101,201012,35.55,114.05,62.5,64.5,,,,,一般站,,,,
53996,河北,成安,198101,201012,36.45,114.65,57.9,59,,,,,一般站,,,,
53997,河南,延津,198101,201012,35.15,114.1833333,71.1,72.3,,,,,一般站,,,,
53998,河南,长垣,198101,201012,35.2,114.65,61.6,62.5,,,,,一般站,,,,
54012,内蒙古,西乌珠穆沁旗,195411,201207,44.58333333,117.6,1001.7,1002.6,基本站,,,国际交换站,一般站,,,,
54024,内蒙古,富河,198101,201012,44.45,119.3,710,710,,,,,一般站,,,,
54026,内蒙古,扎鲁特,195205,201207,44.56666667,120.9,265,265.8,基本站,,,国际交换站,一般站,,,,
54027,内蒙古,巴林左旗,195301,201207,43.98333333,119.4,486.2,487.2,基准站,,1987年改基准站,国际交换站,一般站,,,,
54031,内蒙古,高力板,198101,201012,44.9,121.8166667,198.3,201.1,,,,,一般站,,,,
54039,内蒙古,舍伯吐,198101,201012,44.03333333,122.0166667,181.6,182.7,,,,,一般站,,,,
54041,吉林,通榆,195501,200012,44.8,123.0666667,150,155.4,基本站,,,,一般站,,,,
54047,内蒙古,科左中旗,198101,201012,44.13333333,123.2833333,145.8,146.9,,,,,一般站,,,,
54049,吉林,长岭,195209,200012,44.25,123.9666667,188.9,190.4,基本站,,,,一般站,,,,
54063,吉林,三岔河,195209,200012,44.96666667,126,196.8,197.7,基本站,,,,一般站,,,,
54064,吉林,农安,198101,201012,44.38333333,125.15,170.2,175.4,,,,,一般站,,,,
54065,吉林,德惠,198101,201012,44.53333333,125.65,169.1,173.4,,,,,一般站,,,,
54069,吉林,九台,198101,201012,44.01666667,125.8,174.5,175.6,,,,,一般站,,,,
54072,吉林,榆树,198101,201012,44.85,126.5166667,196.5,203.3,,,,,一般站,,,,
54076,吉林,舒兰,198101,201012,44.38333333,126.9333333,268.1,269.3,,,,,一般站,,,,
54080,黑龙江,五常,198101,201012,44.9,127.15,194.6,196.5,,,,,一般站,,,,
54092,黑龙江,海林,198101,201012,44.6,129.4,292.1,294.8,,,,,一般站,,,,
54093,黑龙江,穆棱,198101,201012,44.93333333,130.55,266.3,271.7,,,,,一般站,,,,
54094,黑龙江,牡丹江,195101,201207,44.05,129.0666667,305.7,306.5,基本站,,,国际交换站,一般站,,,,
54096,黑龙江,绥芬河,195208,201207,44.38333333,131.0166667,567.8,569.8,基本站,,,国际交换站,一般站,,,,
54098,黑龙江,宁安,198101,201012,44.03333333,129.4666667,267.9,272.4,,,,,一般站,,,,
54099,黑龙江,东宁,198101,201012,44.08333333,131.1333333,148.6,151.3,,,,,一般站,,,,
54102,内蒙古,锡林浩特,195206,201207,43.95,116.1166667,1003,1003.8,基本站,,,国际交换站,一般站,,,,
54113,内蒙古,巴林右旗,198101,201012,43.53333333,118.65,621.4,622.5,,,,,一般站,,,,
54115,内蒙古,林西,195205,201207,43.63333333,118.0333333,825,825.4,基本站,,,国际交换站,一般站,,,,
54117,内蒙古,克什克腾,198101,201012,43.25,117.5333333,1003.3,1004.4,,,,,一般站,,,,
54122,内蒙古,阿鲁科尔沁旗,198101,201012,43.88333333,120.05,374.9,376,,,,,一般站,,,,
54132,内蒙古,青龙山,198101,201012,42.4,121.0666667,400,400.6,,,,,一般站,,,,
54134,内蒙古,开鲁,195205,200012,43.6,121.2833333,241,242.3,基准站,,1991年改基准站,,一般站,,,,
54135,内蒙古,通辽,195101,201207,43.6,122.2666667,178.7,180.1,基本站,,,国际交换站,一般站,,,,
54142,吉林,双辽,195301,200012,43.05,123.5333333,114.9,116.6,基本站,,,,一般站,,,,
54154,吉林,梨树,198101,201012,43.35,124.3,160.2,160.6,,,,,一般站,,,,
54155,吉林,孤家子,199101,201012,43.06666667,124.2333333,144.2,145,,,,,一般站,,,,
54157,吉林,四平,195101,201207,43.01666667,124.0333333,165.7,167.2,基本站,,,国际交换站,一般站,,,,
54161,吉林,长春,195101,201207,43.9,125.2166667,236.8,237.5,基准站,,1987年改基准站,国际交换站,一般站,,,,
54164,吉林,伊通,198101,201012,43.35,125.2833333,248.1,249.6,,,,,一般站,,,,
54165,吉林,双阳,198101,201012,43.55,125.6333333,219.5,223.9,,,,,一般站,,,,
54169,吉林,烟筒山,196101,199512,43.3,126.0166667,271.6,270.3,一般站,业务由54263代,1996年改一般,,一般站,,,,
54171,吉林,永吉,199601,200012,43.7,126.5166667,229.5,232.4,基本站,,,,一般站,,,,
54172,吉林,吉林,195101,199512,43.86666667,126.5333333,290.3,291.7,一般站,业务由54263代,1996年改一般,,一般站,,,,
54181,吉林,蛟河,195101,200012,43.7,127.0333333,295,294.5,基本站,,,,一般站,,,,
54186,吉林,敦化,195301,200012,43.36666667,128.2,524.9,526,基准站,,1987年改基准站,,一般站,,,,
54187,吉林,安图,198101,201012,43.11666667,128.9166667,366.6,369,,,,,一般站,,,,
54192,吉林,罗子河,195712,198812,43.7,130.2666667,384.6,386,一般站,,1989年改一般,,一般站,,,,
54195,吉林,汪清,198901,200012,43.3,129.7833333,244.8,244.9,基本站,,,,一般站,,,,
54204,内蒙古,正镶白旗,198101,201012,42.3,115,1346.3,1347.8,,,,,一般站,,,,
54205,内蒙古,正蓝旗,198101,201012,42.23333333,116,1315.5,1316.6,,,,,一般站,,,,
54208,内蒙古,多伦,195206,201207,42.18333333,116.4666667,1245.4,1247,基准站,,1991年改基准站,国际交换站,一般站,,,,
54213,内蒙古,翁牛特,195612,200012,42.93333333,119.0166667,634.3,635.7,基本站,,,,一般站,,,,
54214,内蒙古,岗子,198101,201012,42.58333333,118.4166667,960,961.3,,,,,一般站,,,,
54218,内蒙古,赤峰,195101,201207,42.3,118.0833333,668.6,669,基本站,,,国际交换站,一般站,,,,
54223,内蒙古,奈曼,198101,201012,42.85,120.65,362.9,364,,,,,一般站,,,,
54225,内蒙古,敖汉,198101,201012,42.3,119.95,579.4,580.3,,,,,一般站,,,,
54226,内蒙古,宝国图,195612,200012,42.03333333,120.7,400.5,402,基本站,,,,一般站,,,,
54231,内蒙古,科左后旗,198101,201012,42.96666667,122.35,248.1,249.3,,,,,一般站,,,,
54234,内蒙古,库伦,198101,201012,42.73333333,121.75,297.8,298.9,,,,,一般站,,,,
54236,辽宁,彰武,195207,201207,42.38333333,122.55,79.4,85,基本站,,,国际交换站,一般站,,,,
54237,辽宁,阜新,195101,200012,42.03333333,121.65,166.8,167.8,基本站,,,,,,,,
54243,辽宁,昌图,198101,201012,42.78333333,124.1166667,165.1,165.8,,,,,一般站,,,,
54244,辽宁,康平,198101,201012,42.75,123.0333333,118.6,120.1,,,,,一般站,,,,
54245,辽宁,法库,198101,201012,42.05,123.4,97.8,99.3,,,,,一般站,,,,
54248,辽宁,沈北新区,199201,201012,42.03333333,123.5333333,61.6,67.8,,,,,一般站,,,,
54249,辽宁,铁岭,198101,201012,42.3,123.8666667,85.4,79.4,,,,,一般站,,,,
54252,辽宁,西丰,198101,201012,42.73333333,124.75,196.1,198.7,,,,,一般站,,,,
54254,辽宁,开原,195410,200012,42.53333333,124.05,98.2,102.9,基本站,,,,一般站,,,,
54259,辽宁,清原,195701,200012,42.06666667,124.8666667,224,230,基本站,,,,一般站,,,,
54260,吉林,辽源,198101,201012,42.91666667,125.0833333,252.9,254.4,,,,,一般站,,,,
54261,吉林,东丰,198101,201012,42.06666667,125.4666667,345.3,345.8,,,,,一般站,,,,
54263,吉林,磐石,199601,200012,42.96666667,126.05,336.7,339.5,基本站,,,,一般站,,,,
54266,吉林,梅河口,195206,200012,42.53333333,125.6333333,340.5,341.5,基本站,,,,一般站,,,,
54267,吉林,柳河,198101,201012,42.25,125.7333333,362.3,363.2,,,,,一般站,,,,
54273,吉林,桦甸,195601,200012,42.98333333,126.75,263.3,264.8,基本站,,,,一般站,,,,
54274,吉林,辉南,198101,201012,42.68333333,125.9833333,306.7,308.3,,,,,一般站,,,,
54276,吉林,靖宇,195412,200012,42.4,126.8,570,569.6,基本站,,,,一般站,,,,
54279,吉林,江源,200701,201012,42.05,126.5833333,544.4,545.4,,,,,一般站,,,,
54284,吉林,东岗,195612,200012,42.15,127.05,774.2,775.4,基准站,,1992年改基准站,,一般站,,,,
54285,吉林,松江,195711,200012,42.41666667,128.1166667,721.4,722.4,基本站,,,,一般站,,,,
54286,吉林,和龙,198101,201012,42.53333333,129,475.6,478.8,,,,,一般站,,,,
54287,吉林,天池,195810,199809,42.01666667,128.0833333,2623.9,2623,基本站,,1989年起改为季节站,,,,,,
54290,吉林,龙井,198101,201012,42.76666667,129.4,241.1,248.1,,,,,一般站,,,,
54291,吉林,珲春,198101,201012,42.9,130.2833333,36.5,37.8,,,,,一般站,,,,
54292,吉林,延吉,195301,201207,42.86666667,129.05,257.3,258.5,基本站,,,国际交换站,一般站,,,,
54293,吉林,图们,198101,201012,42.95,129.0833333,142.8,141.3,,,,,一般站,,,,
54301,河北,沽源,198101,201012,41.06666667,115.0666667,1412,1413.1,,,,,一般站,,,,
54304,河北,崇礼,198101,201012,40.95,115.2666667,1239.8,1241.1,,,,,一般站,,,,
54305,内蒙古,太仆寺,198101,201012,41.88333333,115.2666667,1468.9,1470,,,,,一般站,,,,
54308,河北,丰宁,195601,200012,41.2,116.6333333,735.1,736.3,基准站,,1993年改基准站,,一般站,,,,
54311,河北,围场,195101,200012,41.96666667,117.7666667,892.7,893.8,基本站,,,,一般站,,,,
54313,内蒙古,喀喇沁,198101,201012,41.93333333,118.7,733.7,734.8,,,,,一般站,,,,
54316,内蒙古,八里罕,198101,201012,41.51666667,118.75,679.3,680.7,,,,,一般站,,,,
54318,河北,隆化,198101,201012,41.31666667,117.7333333,561.6,562.8,,,,,一般站,,,,
54319,河北,平泉,198101,201012,41,118.0666667,502.3,503.3,,,,,一般站,,,,
54320,内蒙古,宁城,198101,201012,41.6,119.3,544.2,545.3,,,,,一般站,,,,
54321,辽宁,建平县,198101,201012,41.86666667,119.6333333,661.8,661.6,,,,,一般站,,,,
54323,辽宁,北票,198101,201012,41.81666667,120.7833333,253.8,253.5,,,,,一般站,,,,
54324,辽宁,朝阳,195205,201207,41.55,120.4333333,174.3,175.3,基准站,,1992年改基准站,国际交换站,一般站,,,,
54325,辽宁,羊山,198101,201012,41.18333333,120.35,183.8,183.1,,,,,一般站,,,,
54326,辽宁,叶柏寿,195207,200012,41.41666667,119.6166667,462.2,470.1,基本站,,,,一般站,,,,
54327,辽宁,凌源,198101,201012,41.23333333,119.35,417.1,421.5,,,,,一般站,,,,
54328,辽宁,喀左,198101,201012,41.08333333,119.7166667,296.8,300.6,,,,,一般站,,,,
54332,辽宁,辽中,198101,201012,41.51666667,122.7166667,12.2,13.9,,,,,一般站,,,,
54333,辽宁,新民,198701,200012,41.96666667,122.85,30.9,32.1,基准站,,1987年改基准站,,一般站,,,,
54335,辽宁,黑山,195601,200012,41.68333333,122.0833333,37.5,37.5,基本站,,,,,,,,
54336,辽宁,台安,198101,201012,41.41666667,122.4166667,8.3,13.1,,,,,一般站,,,,
54337,辽宁,锦州,195101,201207,41.13333333,121.1166667,65.9,70.2,基本站,,,国际交换站,,,,,
54338,辽宁,盘山,198101,201012,41.28333333,121.95,3.2,4.1,,,,,一般站,,,,
54339,辽宁,鞍山,195101,200012,41.08333333,123,77.3,78.5,基本站,,,,一般站,,,,
54340,辽宁,苏家屯,200301,201012,41.06666667,123.3166667,35.8,47.6,,,,,一般站,,,,
54342,辽宁,沈阳,195101,201207,41.73333333,123.5166667,49,49.5,基本站,,,国际交换站,一般站,,,,
54345,辽宁,辽阳县,200401,201012,41.2,123.0666667,30.7,29.6,,,,,一般站,,,,
54346,辽宁,本溪,195505,201207,41.31666667,123.7833333,185.4,186.1,基本站,,,国际交换站,一般站,,,,
54347,辽宁,辽阳,198101,201012,41.23333333,123.0166667,24.8,25.7,,,,,一般站,,,,
54348,辽宁,灯塔,200401,201012,41.41666667,123.0333333,36.8,36.5,,,,,一般站,,,,
54351,辽宁,章党,195101,200012,41.91666667,124.0833333,118.5,116.5,基本站,,,,一般站,,,,
54353,辽宁,新宾,198101,201012,41.73333333,125.05,328.4,331.7,,,,,一般站,,,,
54362,吉林,通化县,198101,201012,41.06666667,125.7333333,380.1,388.8,,,,,一般站,,,,
54363,吉林,通化,195101,200012,41.68333333,125.9,402.9,404.3,基本站,,,,一般站,,,,
54365,辽宁,桓仁,195207,200012,41.26666667,125.35,240.3,242,基本站,,,,,,,,
54371,吉林,白山,198101,201012,41.93333333,126.4333333,520.6,521.6,,,,,一般站,,,,
54374,吉林,临江,195301,201207,41.8,126.8833333,379.7,378.9,基本站,,,国际交换站,一般站,,,,
54377,吉林,集安,195401,200012,41.15,126.2166667,225.1,225.5,基本站,,,,一般站,,,,
54386,吉林,长白,195612,200012,41.41666667,128.1833333,775,777.8,基本站,,,,一般站,,,,
54398,北京,顺义,198101,201012,40.13333333,116.6166667,28.6,29.6,,,,,一般站,,,,
54399,北京,海淀,198101,201012,39.98333333,116.2833333,45.8,46.9,,,,,一般站,,,,
54401,河北,张家口,195601,200012,40.76666667,114.9166667,772.8,774.1,基本站,,,,一般站,,,,
54404,河北,赤城,198101,201012,40.88333333,115.0833333,867.6,868.7,,,,,一般站,,,,
54405,河北,怀来,195401,201207,40.41666667,115.05,570.9,572.1,基本站,,,国际交换站,一般站,,,,
54406,北京,延庆,198101,201012,40.45,115.9666667,487.9,489.1,,,,,一般站,,,,
54408,河北,涿鹿,198101,201012,40.38333333,115.2166667,529.6,530.7,,,,,一般站,,,,
54416,北京,密云,199101,200012,40.38333333,116.8666667,71.8,73,基准站,缺199107-199112,1993年改基准站,,一般站,,,,
54419,北京,怀柔,198101,201012,40.36666667,116.6333333,75.7,76.8,,,,,一般站,,,,
54420,河北,滦平,198101,201012,40.93333333,117.0333333,529,530.1,,,,,一般站,,,,
54423,河北,承德,195101,201207,40.96666667,117.9166667,422.3,423.5,基本站,,,国际交换站,一般站,,,,
54424,北京,平谷,198101,201012,40.01666667,117.1166667,32.1,33.3,,,,,一般站,,,,
54425,河北,兴隆,198101,201012,40.4,117.4666667,633.2,634.4,,,,,一般站,,,,
54428,天津,蓟县,198101,201012,40.03333333,117.4,15.7,16.9,,,,,一般站,,,,
54429,河北,遵化,195601,200012,40.2,117.95,54.9,56.1,基本站,,,,一般站,,,,
54430,河北,承德县,198101,201012,40.76666667,118.15,269.2,270.3,,,,,一般站,,,,
54431,北京,通州,198101,201012,39.91666667,116.6333333,43.3,44.5,,,,,一般站,,,,
54432,河北,宽城,198101,201012,40.6,118.4833333,304.7,305.8,,,,,一般站,,,,
54433,北京,朝阳,198101,201012,39.95,116.05,35.3,36.3,,,,,一般站,,,,
54434,河北,迁西,198101,201012,40.01666667,118.0333333,131.6,132.8,,,,,一般站,,,,
54436,河北,青龙,195701,200012,40.41666667,118.95,254.3,255.4,基本站,,,,一般站,,,,
54437,河北,滦南,198101,201012,39.05,118.6166667,18.3,19.3,,,,,一般站,,,,
54438,河北,卢龙,198101,201012,39.88333333,118.8833333,65,66.1,,,,,一般站,,,,
54439,河北,迁安,198101,201012,40.01666667,118.7166667,50.9,52,,,,,一般站,,,,
54449,河北,秦皇岛,195401,200012,39.85,119.5166667,2.4,3.5,基本站,,,,一般站,,,,
54452,辽宁,建昌,198101,201012,40.8,119.8166667,365.5,367.8,,,,,一般站,,,,
54453,辽宁,连山区,198101,201012,40.78333333,120.8833333,38.5,43,,,,,一般站,,,,
54454,辽宁,绥中,195601,200012,40.03333333,120.3,29,29,基本站,,,,一般站,,,,
54455,辽宁,兴城,195101,200012,40.61666667,120.65,20.5,21.5,基准站,,1990年改基准站,,一般站,,,,
54470,辽宁,大洼,198101,201012,41.01666667,122.0666667,5.5,6.1,,,,,一般站,,,,
54471,辽宁,营口,195101,201207,40.65,122.0166667,3.8,4.6,基本站,,,国际交换站,一般站,,,,
54474,辽宁,盖州,198101,201012,40.41666667,122.35,24.8,27.6,,,,,一般站,,,,
54475,辽宁,大石桥,198101,201012,40.61666667,122.4833333,11.5,15.3,,,,,一般站,,,,
54476,辽宁,熊岳,195201,200012,40.01666667,122.15,20.4,37.9,基本站,,,,一般站,,,,
54483,辽宁,草河口,195207,199106,40.88333333,123.9,233.6,239.8,一般站,,1991年7月改一般,,一般站,,,,
54486,辽宁,岫岩,195212,200012,40.28333333,123.2833333,79.8,81.3,基本站,,,,一般站,,,,
54493,辽宁,宽甸,195401,200012,40.71666667,124.7833333,260.1,261.1,基准站,,1992年改基准站,,一般站,,,,
54494,辽宁,凤城,198101,201012,40.46666667,124.0666667,72.6,74.4,,,,,一般站,,,,
54497,辽宁,丹东,195101,201207,40.05,124.0333333,13.8,13.1,基本站,,,国际交换站,一般站,,,,
54499,北京,昌平,198101,201012,40.21666667,116.2166667,76.2,77.4,,,,,一般站,,,,
54501,北京,斋堂,198101,201012,39.96666667,115.6833333,440.3,441.3,,,,,一般站,,,,
54502,河北,涿州,198101,201012,39.48333333,116.0333333,29.3,30.4,,,,,一般站,,,,
54503,河北,容城,198101,201012,39.06666667,115.8166667,12.8,14,,,,,一般站,,,,
54505,北京,门头沟,198101,201012,39.93333333,116.1,98,99.1,,,,,一般站,,,,
54506,河北,高碑店,198101,201012,39.31666667,115.95,24.6,25.7,,,,,一般站,,,,
54507,河北,易县,198101,201012,39.03333333,115.5166667,49.3,50.8,,,,,一般站,,,,
54510,河北,大厂,198101,201012,39.91666667,116.95,18.3,19.3,,,,,一般站,,,,
54511,北京,北京,195101,201207,39.8,116.4666667,31.3,32.5,基本站,,,国际交换站,一般站,,,,
54512,河北,固安,198101,201012,39.41666667,116.2833333,21.4,22.6,,,,,一般站,,,,
54513,北京,石景山,198101,201012,39.95,116.2,65.6,66.8,,,,,一般站,,,,
54514,北京,丰台,198101,201012,39.86666667,116.25,55.2,56.7,,,,,一般站,,,,
54515,河北,廊坊,198101,201012,39.05,116.7,13.7,14.8,,,,,一般站,,,,
54518,河北,霸州,195701,200012,39.01666667,116.4,8.9,10.4,基本站,,,,一般站,,,,
54519,河北,永清,198101,201012,39.3,116.4833333,12.2,13.4,,,,,一般站,,,,
54520,河北,三河,198101,201012,39.96666667,117.0833333,18.1,19.3,,,,,一般站,,,,
54521,河北,香河,198101,201012,39.76666667,116.9833333,13,14.2,,,,,一般站,,,,
54522,河北,玉田,198101,201012,39.88333333,117.7333333,14.4,15.6,,,,,一般站,,,,
54523,天津,武清,198101,201012,39.38333333,117.0166667,4.5,5.7,,,,,一般站,,,,
54525,天津,宝坻,198101,201012,39.73333333,117.2833333,5.1,6.3,,,,,一般站,,,,
54526,天津,东丽,198101,201012,39.08333333,117.0333333,1.9,2.6,,,,,一般站,,,,
54527,天津,天津,195101,201207,39.08333333,117.05,3.5,4.3,基本站,,,国际交换站,一般站,,,,
54528,天津,北辰,198101,201012,39.23333333,117.1333333,3.4,4.6,,,,,一般站,,,,
54529,天津,宁河,198101,201012,39.35,117.8166667,3.9,5.1,,,,,一般站,,,,
54530,天津,汉沽,198101,201012,39.23333333,117.7666667,1.3,2.5,,,,,一般站,,,,
54531,河北,滦县,198101,201012,39.73333333,118.7166667,43,44.1,,,,,一般站,,,,
54532,河北,丰润,198101,201012,39.8,118.0833333,31.6,32.8,,,,,一般站,,,,
54533,河北,丰南,198101,201012,39.58333333,118.1,8.9,10.1,,,,,一般站,,,,
54534,河北,唐山,195701,200012,39.65,118.1,23.2,24.5,基本站,,,,一般站,,,,
54535,河北,曹妃甸,198101,201012,39.28333333,118.4666667,3.2,4.4,,,,,一般站,,,,
54539,河北,乐亭,195701,201207,39.43333333,118.8833333,8.5,9.7,基准站,,1988年改基准站,国际交换站,一般站,,,,
54540,河北,昌黎,198101,201012,39.73333333,119.2,17.6,18.7,,,,,一般站,,,,
54541,河北,抚宁,198101,201012,39.9,119.2333333,24.3,25.4,,,,,一般站,,,,
54563,辽宁,瓦房店,195701,200012,39.63333333,122.0166667,118.7,119,基本站,,,,一般站,,,,
54565,辽宁,长兴岛,#N/A,#N/A,39.6,121.4666667,70.6,72,,,,,一般站,,,,
54568,辽宁,金州,198101,201012,39.06666667,121.75,90.8,94.2,,,,,一般站,,,,
54569,辽宁,普兰店,198101,201012,39.41666667,121.95,11.7,12.7,,,,,一般站,,,,
54575,辽宁,皮口,195601,199212,39.41666667,122.3666667,43.2,43.1,一般站,,1991年7月改一般,,一般站,,,,
54579,辽宁,长海,199502,200012,39.26666667,122.5833333,35.5,33.6,基本站,,,,一般站,,,,
54584,辽宁,庄河,195601,200012,39.71666667,122.95,34.8,35.9,基本站,,,,一般站,,,,
54590,辽宁,东港,198101,201012,39.88333333,124.0166667,4.2,5.3,,,,,一般站,,,,
54594,北京,大兴,198101,201012,39.71666667,116.35,37.6,38.8,,,,,一般站,,,,
54596,北京,房山,198101,201012,39.76666667,116.2,48.9,49.9,,,,,一般站,,,,
54597,北京,霞云岭,198101,201012,39.73333333,115.7333333,407.7,408.7,,,,,一般站,,,,
54601,河北,徐水,198101,201012,38.98333333,115.65,13.1,14.3,,,,,一般站,,,,
54602,河北,保定,195501,200012,38.73333333,115.4833333,16.8,17.9,基本站,,,,一般站,,,,
54603,河北,高阳,198101,201012,38.71666667,115.7666667,10,11.2,,,,,一般站,,,,
54604,河北,安国,198101,201012,38.41666667,115.0333333,29.6,30.8,,,,,一般站,,,,
54605,河北,安新,198101,201012,38.93333333,115.9333333,4.4,5.6,,,,,一般站,,,,
54606,河北,饶阳,195701,200012,38.23333333,115.7333333,19,20.2,基准站,,1991年改基准站,,一般站,,,,
54607,河北,望都,198101,201012,38.71666667,115.1166667,45,46.2,,,,,一般站,,,,
54608,河北,深州,198101,201012,38,115.55,26.1,27.3,,,,,一般站,,,,
54609,河北,安平,198101,201012,38.23333333,115.5833333,22.4,23.6,,,,,一般站,,,,
54610,河北,任丘,198101,201012,38.73333333,116.1,8.1,9.2,,,,,一般站,,,,
54611,河北,满城,198101,201012,38.93333333,115.3166667,44.8,45.9,,,,,一般站,,,,
54612,河北,文安,198101,201012,38.85,116.45,4.3,5.4,,,,,一般站,,,,
54613,河北,大城,198101,201012,38.7,116.6166667,6.9,8,,,,,一般站,,,,
54614,河北,河间,198101,201012,38.41666667,116.05,10.9,12.4,,,,,一般站,,,,
54615,河北,青县,198101,201012,38.58333333,116.85,8,9.3,,,,,一般站,,,,
54616,河北,沧洲,195401,199512,38.35,116.85,8,9.1,一般站,,1996年改一般站,,一般站,,,,
54617,河北,献县,198101,201012,38.18333333,116.1166667,13.2,14.4,,,,,一般站,,,,
54618,河北,泊头,195701,201207,38.08333333,116.55,13.2,14.3,基本站,,,国际交换站,一般站,,,,
54619,天津,静海,198101,201012,38.91666667,116.9166667,5.5,6.7,,,,,一般站,,,,
54620,河北,蠡县,198101,201012,38.48333333,115.5666667,18.5,19.7,,,,,一般站,,,,
54621,河北,深泽,198101,201012,38.18333333,115.1833333,38.1,39.3,,,,,一般站,,,,
54622,天津,津南,198101,201012,38.98333333,117.3666667,3.7,3.9,,,,,一般站,,,,
54623,天津,塘沽,195401,200012,39.05,117.7166667,4.8,5.7,基本站,,,,一般站,,,,
54624,河北,黄骅,196001,200012,38.4,117.3166667,4.5,6,基本站,,缺199401,,一般站,,,,
54626,河北,肃宁,198101,201012,38.41666667,115.8166667,13.9,15.1,,,,,一般站,,,,
54627,河北,盐山,198101,201012,38.03333333,117.2333333,8.2,9.4,,,,,一般站,,,,
54628,河北,海兴,198101,201012,38.15,117.4833333,6.4,7.6,,,,,一般站,,,,
54631,河北,广宗,198101,201012,37.06666667,115.15,32.4,33.6,,,,,一般站,,,,
54632,河北,平乡,198101,201012,37.06666667,115.0333333,34,35.2,,,,,一般站,,,,
54633,河北,新河,198101,201012,37.51666667,115.2333333,26.3,27.5,,,,,一般站,,,,
54636,河北,雄县,198101,201012,39.01666667,116.1,11.1,12.2,,,,,一般站,,,,
54640,河北,鸡泽,198101,201012,36.91666667,114.8666667,36,37.2,,,,,一般站,,,,
54644,河北,孟村,198101,201012,38.05,117.1166667,10.5,11.7,,,,,一般站,,,,
54645,天津,大港,198601,201012,38.85,117.4666667,2.2,3.4,,,,,一般站,,,,
54662,辽宁,大连,195101,201207,38.9,121.6333333,91.5,92.5,基准站,,1993年改基准站,国际交换站,一般站,,,,
54700,河北,武强,198101,201012,38.03333333,115.9333333,16.2,17.4,,,,,一般站,,,,
54701,河北,辛集,198101,201012,37.93333333,115.2,35.9,36.9,,,,,一般站,,,,
54702,河北,衡水,198101,201012,37.73333333,115.7,20.7,21.9,,,,,一般站,,,,
54703,河北,武邑,198101,201012,37.8,115.8833333,21.3,22.5,,,,,一般站,,,,
54704,河北,冀州,198101,201012,37.51666667,115.5666667,24.8,26,,,,,一般站,,,,
54705,河北,南宫,195801,200012,37.36666667,115.3833333,27.4,28.6,基本站,,,,一般站,,,,
54706,河北,清河,198101,201012,37.08333333,115.0666667,31.5,32.7,,,,,一般站,,,,
54707,河北,故城,198101,201012,37.35,115.9833333,27.4,28.6,,,,,一般站,,,,
54708,河北,枣强,198101,201012,37.05,115.7333333,23.6,24.7,,,,,一般站,,,,
54709,山东,武城,198101,201012,37.21666667,116.0666667,25.7,26.9,,,,,一般站,,,,
54710,河北,阜城,198101,201012,37.86666667,116.0166667,18.6,19.8,,,,,一般站,,,,
54711,河北,景县,198101,201012,37.7,116.2833333,18.3,19.5,,,,,一般站,,,,
54712,山东,临邑,198101,201012,37.2,116.8166667,18.5,19.7,,,,,一般站,,,,
54713,河北,东光,198101,201012,37.88333333,116.5333333,14.4,15.6,,,,,一般站,,,,
54714,山东,德州,195101,199412,37.45,116.0333333,23.6,24.8,一般站,,1995年业务由54715代替,,一般站,,,,
54715,山东,陵县,199501,200012,37.31666667,116.5666667,18.6,22.8,基本站,,,,一般站,,,,
54716,山东,宁津,198101,201012,37.06666667,116.8,16.3,17.5,,,,,一般站,,,,
54717,河北,吴桥,198101,201012,37.63333333,116.4,17.1,18.3,,,,,一般站,,,,
54719,河北,南皮,198101,201012,38.03333333,116.6833333,11.1,12.3,,,,,一般站,,,,
54722,山东,无棣,198101,201012,37.75,117.6333333,6.8,8,,,,,一般站,,,,
54723,山东,阳信,198101,201012,37.65,117.5666667,10.1,11.2,,,,,一般站,,,,
54724,山东,商河,198101,201012,37.31666667,117.1333333,14.8,15.9,,,,,一般站,,,,
54725,山东,惠民,195101,201207,37.05,117.5333333,11.7,12.9,基准站,,1994年改基准站,国际交换站,一般站,,,,
54726,山东,乐陵,198101,201012,37.7,117.1833333,11.5,12.7,,,,,一般站,,,,
54727,山东,章丘,198101,201012,36.68333333,117.55,121.8,123,,,,,一般站,,,,
54728,山东,庆云,198101,201012,37.76666667,117.3833333,8.4,9.6,,,,,一般站,,,,
54729,山东,高青,198101,201012,37.01666667,117.8666667,11.5,12.5,,,,,一般站,,,,
54734,山东,滨州,198101,201012,37.35,118,12.2,13.4,,,,,一般站,,,,
54736,山东,羊角沟,195401,200012,37.43333333,118.0666667,6,9.2,基本站,,,,一般站,,,,
54744,山东,垦利,198101,201012,37.58333333,118.55,8.5,9.8,,,,,一般站,,,,
54749,山东,莱州,198101,201012,37.18333333,119.95,48.4,48.9,,,,,一般站,,,,
54751,山东,长岛,196101,200012,37.93333333,120.7333333,39.7,43,基本站,,,,一般站,,,,
54752,山东,蓬莱,198101,201012,37.8,120.7666667,60.7,61.8,,,,,一般站,,,,
54753,山东,龙口,195701,200012,37.63333333,120.0333333,4.8,5.7,基准站,,1988年改基准站,,一般站,,,,
54755,山东,招远,198101,201012,37.03333333,120.3833333,117.8,118.7,,,,,一般站,,,,
54759,山东,栖霞,198101,201012,37.31666667,120.85,205.5,190.1,,,,,一般站,,,,
54764,山东,福山,199502,200012,37.48333333,121.2333333,53.9,55.2,基本站,,,,一般站,,,,
54765,山东,烟台,195101,199112,37.48333333,121.4333333,82,83,一般站,,1992年业务由54764代替,,一般站,,,,
54774,山东,威海,195901,200012,37.46666667,122.1333333,65.4,61.3,基本站,,缺196201-196312,,,,,,
54776,山东,成山头,195201,201207,37.4,122.7,47.7,46.4,基本站,,,国际交换站,一般站,,,,
54777,山东,文登,198101,201012,37.2,122.0666667,118,119.2,,,,,一般站,,,,
54800,河北,威县,198101,201012,37,115.25,33.3,34.5,,,,,一般站,,,,
54801,河北,临西,198101,201012,36.85,115.4833333,35.3,36.5,,,,,一般站,,,,
54802,山东,临清,198101,201012,36.81666667,115.7333333,34,34.9,,,,,一般站,,,,
54804,河北,大名,198101,201012,36.3,115.1333333,44.9,46,,,,,一般站,,,,
54806,山东,聊城,198101,201012,36.41666667,115.9666667,33,34.3,,,,,一般站,,,,
54807,山东,阳谷,198101,201012,36.15,115.7666667,41.2,42.5,,,,,一般站,,,,
54808,山东,朝阳,195701,200012,36.23333333,115.6333333,37.8,39.1,基准站,,1990年改基准站,,一般站,,,,
54809,河北,馆陶,198101,201012,36.55,115.2833333,41.3,42.5,,,,,一般站,,,,
54812,山东,齐河,198101,201012,36.78333333,116.75,22.7,23.9,,,,,一般站,,,,
54814,山东,茌平,198101,201012,36.53333333,116.25,29.7,30.9,,,,,一般站,,,,
54815,山东,东阿,198101,201012,36.38333333,116.2666667,31.4,32.6,,,,,一般站,,,,
54816,山东,长清,198101,201012,36.51666667,116.8,98.9,100.1,,,,,一般站,,,,
54817,河南,台前,198101,201012,35.98333333,115.8666667,42.1,43.1,,,,,一般站,,,,
54818,山东,平阴,198101,201012,36.25,116.4166667,79.9,81,,,,,一般站,,,,
54819,山东,肥城,198101,201012,36.18333333,116.8,113.6,114.9,,,,,一般站,,,,
54820,河北,邱县,198101,201012,36.81666667,115.0166667,36.7,37.9,,,,,一般站,,,,
54821,山东,济阳,198101,201012,37,117.2,20.4,21.6,,,,,一般站,,,,
54822,山东,邹平,198101,201012,36.86666667,117.7333333,47.4,48.6,,,,,一般站,,,,
54823,山东,济南,195101,201207,36.6,117,170.3,171.2,基本站,,,国际交换站,一般站,,,,
54824,山东,淄川,199501,200012,36.63333333,117.95,95,95.3,基本站,,,,一般站,,,,
54825,山东,博山,198101,201012,36.51666667,117.85,189.7,190.9,,,,,一般站,,,,
54826,山东,泰山,195401,200012,36.25,117.1,1533.7,1536.5,基本站,,,,一般站,,,,
54827,山东,泰安,195101,199112,36.01666667,117.15,128.6,129.8,一般站,,1992年改一般站,,一般站,,,,
54828,山东,莱芜,198101,201012,36.23333333,117.6833333,229.3,228.6,,,,,一般站,,,,
54829,山东,周村,198101,201012,36.76666667,117.8666667,85.7,86.7,,,,,一般站,,,,
54830,山东,淄博,195103,199412,36.81666667,117.9333333,34.4,35.3,一般站,,1995年业务由54824代替,,一般站,,,,
54831,山东,青州,198101,201012,36.65,118.05,102.5,103.7,,,,,一般站,,,,
54832,山东,寿光,198101,201012,36.88333333,118.7333333,25.8,27,,,,,一般站,,,,
54833,山东,桓台,198101,201012,36.96666667,118.0833333,15.1,16.3,,,,,一般站,,,,
54834,山东,临淄,198101,201012,36.86666667,118.2833333,46.3,47.3,,,,,一般站,,,,
54835,山东,临朐,198101,201012,36.05,118.55,106.5,110.6,,,,,一般站,,,,
54836,山东,沂源,195801,200012,36.18333333,118.0166667,305.1,303.7,基本站,,,,一般站,,,,
54837,山东,昌乐,198101,201012,36.68333333,118.0833333,78.8,80,,,,,一般站,,,,
54841,山东,昌邑,198101,201012,36.86666667,119.4166667,23.5,24.7,,,,,一般站,,,,
54842,山东,平度,198101,201012,36.78333333,120,62.2,63.3,,,,,一般站,,,,
54843,山东,潍坊,195101,201207,36.75,119.2,22.2,22.5,基本站,,,国际交换站,一般站,,,,
54844,山东,安丘,198101,201012,36.41666667,119.1833333,62.7,67.5,,,,,一般站,,,,
54846,山东,高密,198101,201012,36.38333333,119.7333333,51.5,52.7,,,,,一般站,,,,
54848,山东,诸城,198101,201012,35.98333333,119.4166667,82.6,81.8,,,,,一般站,,,,
54849,山东,胶州,198101,201012,36.21666667,120.0333333,84.4,83.9,,,,,一般站,,,,
54851,山东,莱西,198101,201012,36.9,120.5666667,76.9,77.8,,,,,一般站,,,,
54852,山东,莱阳,195201,200012,36.96666667,120.7333333,54.4,53.6,基本站,,,,一般站,,,,
54853,山东,崂山,198101,201012,36.01666667,120.4166667,42.6,43.7,,,,,一般站,,,,
54855,山东,即墨,198101,201012,36.38333333,120.4666667,26.2,30.2,,,,,一般站,,,,
54857,山东,青岛,196101,200012,36.06666667,120.0333333,76,75.3,基本站,,,,一般站,,,,
54861,山东,乳山,198101,201012,36.93333333,121.5333333,45.4,47.8,,,,,一般站,,,,
54863,山东,海阳,195901,200012,36.78333333,121.1833333,40.9,42,基本站,,,,一般站,,,,
54871,山东,石岛,195302,200012,36.93333333,122.4833333,9.8,9.1,基本站,,,,一般站,,,,
54900,河南,濮阳,198101,201012,35.7,115.0166667,53.7,54.7,,,,,一般站,,,,
54901,河南,南乐,198101,201012,36.08333333,115.0166667,47.5,48.5,,,,,一般站,,,,
54902,河南,清丰,198101,201012,35.9,115.1166667,49.5,50.5,,,,,一般站,,,,
54903,河南,范县,198101,201012,35.85,115.4833333,45.7,50.6,,,,,一般站,,,,
54904,山东,鄄城,198101,201012,35.58333333,115.5166667,50.1,51.5,,,,,一般站,,,,
54905,山东,郓城,198101,201012,35.58333333,115.9333333,46.2,47.4,,,,,一般站,,,,
54906,山东,荷泽,195401,199412,35.25,115.4166667,49.9,51.1,一般站,,1995年业务由54909代替,,一般站,,,,
54907,山东,鱼台,198101,201012,34.98333333,116.65,34.3,35.4,,,,,一般站,,,,
54908,山东,东明,198101,201012,35.26666667,115.1,57.3,58.2,,,,,一般站,,,,
54909,山东,定陶,196301,201207,35.08333333,115.5166667,51.5,51.7,基本站,,,国际交换站,一般站,,,,
54910,山东,梁山,198101,201012,35.81666667,116.05,40.9,42,,,,,一般站,,,,
54911,山东,东平,198101,201012,35.93333333,116.4,44,44.2,,,,,一般站,,,,
54912,山东,汶上,198101,201012,35.76666667,116.05,41.8,42.9,,,,,一般站,,,,
54913,山东,宁阳,198101,201012,35.75,116.8166667,62.2,63.4,,,,,一般站,,,,
54914,山东,巨野,198101,201012,35.41666667,116.0833333,40.6,41.8,,,,,一般站,,,,
54915,山东,济宁,198101,201012,35.43333333,116.6,33.3,34.3,,,,,一般站,,,,
54916,山东,兖州,195101,201207,35.56666667,116.85,51.7,60.1,基本站,,,国际交换站,一般站,,,,
54917,山东,金乡,198101,201012,35.1,116.3166667,36.7,37.8,,,,,一般站,,,,
54918,山东,曲阜,198101,201012,35.6,116.9666667,62.3,63.4,,,,,一般站,,,,
54919,山东,邹城,198101,201012,35.38333333,116.9833333,88.7,89.7,,,,,一般站,,,,
54920,山东,泗水,198101,201012,35.65,117.2833333,110.4,111.5,,,,,一般站,,,,
54921,山东,嘉祥,198101,201012,35.41666667,116.0333333,38.1,39.6,,,,,一般站,,,,
54922,山东,新泰,198101,201012,35.88333333,117.7833333,224,225.2,,,,,一般站,,,,
54923,山东,蒙阴,198101,201012,35.71666667,117.9333333,202.2,203.4,,,,,一般站,,,,
54925,山东,平邑,198101,201012,35.51666667,117.6333333,167.2,168.4,,,,,一般站,,,,
54927,山东,滕州,198101,201012,35.1,117.2,74.9,76.1,,,,,一般站,,,,
54929,山东,费县,199801,200012,35.26666667,117.9666667,121.2,120.6,基本站,,1998年增加为基本站,,一般站,,,,
54932,山东,沂水,198101,201012,35.76666667,118.65,186.7,187.8,,,,,一般站,,,,
54935,山东,沂南,198101,201012,35.53333333,118.4333333,119.4,120.6,,,,,一般站,,,,
54936,山东,莒县,195101,200012,35.56666667,118.0833333,107.4,108.4,基准站,,1987年改基准站,,一般站,,,,
54938,山东,临沂,195101,199712,35.05,118.4,65.2,66.4,基本站,,1998年1月改一般站,,一般站,,,,
54939,山东,莒南,198101,201012,35.01666667,118.8166667,113.8,115,,,,,一般站,,,,
54940,山东,五莲,198101,201012,35.75,119.2,148.2,146.4,,,,,一般站,,,,
54943,山东,黄岛,198101,201012,35.88333333,120,10.4,11.9,,,,,一般站,,,,
54945,山东,日照,195501,200012,35.43333333,119.5333333,36.9,37.1,基本站,,,,一般站,,,,
55228,西藏,狮泉河,196101,200012,32.05,80.08333333,4278.6,4279.8,基本站,,,,一般站,,,,
55248,西藏,改则,197301,200012,32.15,84.41666667,4414.9,4416.1,基本站,,,,一般站,,,,
55279,西藏,班戈,195610,200012,31.36666667,90.01666667,9700,4701,基本站,,,,,,,,
55294,西藏,安多,196511,200012,32.35,91.1,9800,4801,基本站,,,,,,,,
55299,西藏,那曲,195407,200012,31.48333333,92.06666667,4507,4508.2,基本站,,缺199410-199412,,一般站,,,,
55437,西藏,普兰,197301,200012,30.28333333,81.25,3900,3901.2,基本站,,,,一般站,,,,
55472,西藏,申扎,196004,200012,30.95,88.63333333,9672,4673.9,基本站,,,,,,,,
55493,西藏,当雄,196208,200012,30.48333333,91.1,4200,4201.2,基本站,,,,一般站,,,,
55569,西藏,拉孜,197707,200012,29.08333333,87.6,4000,4001.2,基本站,,,,一般站,,,,
55572,西藏,南木林,199101,200012,29.68333333,89.1,4000,4001.3,一般站,,,,一般站,,,,
55578,西藏,日喀则,195512,200012,29.25,88.88333333,3836,3837,基本站,,,,,,,,
55585,西藏,尼木,197307,200012,29.43333333,90.16666667,8809.4,3810.9,基本站,,,,,,,,
55589,西藏,贡噶,199101,200012,29.3,90.98333333,8555,3556,一般站,,,,,,,,
55591,西藏,拉萨,195501,201207,29.66666667,91.13333333,3648.7,3650.1,基本站,,,国际交换站,,,,,
55593,西藏,墨竹贡卡,199101,200012,29.85,91.73333333,3804,3805.1,一般站,,,,一般站,,,,
55597,西藏,琼结,200601,201012,29.03333333,91.68333333,3740,3741.2,,,,,一般站,,,,
55598,西藏,泽当,195609,200012,29.26666667,91.76666667,3560,3561.5,基本站,,缺195811-195911,,一般站,,,,
55664,西藏,定日,195901,200012,28.63333333,87.08333333,4300,4301.2,基本站,缺196908-197009、196811-196901,,,一般站,,,,
55680,西藏,江孜,195611,200012,28.91666667,89.6,4040,4041.2,基本站,,,,一般站,,,,
55681,西藏,浪卡子,199101,200012,28.96666667,90.4,9431.7,4433,一般站,,,,,,,,
55690,西藏,错那,196701,200012,27.98333333,91.95,9280,4281,基本站,,,,,,,,
55696,西藏,隆子,195907,200012,28.41666667,92.46666667,8860,3861,基本站,,,,,,,,
55773,西藏,帕里,195602,200012,27.73333333,89.08333333,9300,4301.2,基本站,,,,,,,,
56016,青海,治多,196110,199012,33.85,95.61666667,4179.1,4179.9,一般站,缺196112、196205-196706,1991年改一般站,,一般站,,,,
56018,青海,杂多,195610,200012,32.88333333,95.28333333,4066.4,4067.2,基本站,,,,一般站,,,,
56021,青海,曲麻莱,195607,201207,34.11666667,95.8,4175,4175.8,基本站,,缺196208-196212,国际交换站,一般站,,,,
56029,青海,玉树,195110,201207,33,96.96666667,3716.9,3717.7,基本站,,,国际交换站,一般站,,,,
56033,青海,玛多,195301,201207,34.91666667,98.21666667,4272.3,4273.1,基本站,,,国际交换站,一般站,,,,
56034,青海,清水河,195609,200012,33.8,97.13333333,4415.4,4416.2,基本站,,,,一般站,,,,
56038,四川,石渠,196010,200012,32.98333333,98.1,4200,4201,基本站,,,,一般站,,,,
56043,青海,果洛,199101,200012,34.48333333,100.2333333,3719,3719.8,基本站,,,,一般站,,,,
56045,青海,甘德,198101,201012,33.96666667,99.9,4050,4050.8,,,,,一般站,,,,
56046,青海,达日,195601,201207,33.75,99.65,3967.5,3968.3,基准站,,1993年改基准站,国际交换站,一般站,,,,
56065,青海,河南,195905,200012,34.73333333,101.6,3500,3500.8,基准站,,缺199301,,一般站,,,,
56067,青海,久治,195812,200012,33.43333333,101.4833333,3628.5,3629.3,基本站,,缺196204、196205,,一般站,,,,
56071,甘肃,碌曲,198101,201012,34.58333333,102.05,3105.7,3106.9,,,,,一般站,,,,
56074,甘肃,玛曲,196701,200012,34,102.0833333,3471.4,3472.6,基本站,,,,一般站,,,,
56079,四川,若尔盖,195701,200012,33.58333333,102.9666667,3441.4,3442.6,基本站,,,,一般站,,,,
56080,甘肃,合作,195707,201207,35,102.9,2910,2911.2,基本站,,,国际交换站,一般站,,,,
56081,甘肃,临潭,198101,201012,34.7,103.35,2810.2,2811.4,,,,,一般站,,,,
56082,甘肃,卓尼,198101,201012,34.58333333,103.05,2540.3,2541.5,,,,,一般站,,,,
56084,甘肃,迭部,198101,201012,34.06666667,103.2333333,2374.2,2375.4,,,,,一般站,,,,
56091,甘肃,漳县,198101,201012,34.85,104.4666667,1883.3,1884.5,,,,,一般站,,,,
56092,甘肃,陇西,198101,201012,35,104.65,1728.2,1729.4,,,,,一般站,,,,
56093,甘肃,岷县,195101,200012,34.43333333,104.0166667,2315,2316.2,基准站,,1990年改基准站,,一般站,,,,
56094,甘肃,舟曲,198101,201012,33.78333333,104.3666667,1400,1401.2,,,,,一般站,,,,
56095,甘肃,宕昌,198101,201012,34.03333333,104.3833333,1753.2,1754.4,,,,,一般站,,,,
56096,甘肃,武都,195101,201207,33.4,104.9166667,1079.1,1080.3,基本站,缺196712、196802-196805,,国际交换站,一般站,,,,
56097,四川,九寨沟,198101,201012,33.26666667,104.25,1440.5,1441.7,,,,,一般站,,,,
56106,西藏,索县,195611,200012,31.88333333,93.78333333,4022.8,4023.8,基本站,,,,,,,,
56109,西藏,比如,199101,200012,31.48333333,93.78333333,8940,3941,一般站,,,,,,,,
56116,西藏,丁青,195401,200012,31.41666667,95.6,3873.1,3874.3,基本站,缺195902-195911、196906-196908,,,一般站,,,,
56125,青海,囊谦,195606,200012,32.2,96.46666667,3643.7,3644.5,基准站,,1993年改基准站195808,,一般站,,,,
56128,西藏,类鸟齐,199101,200012,31.21666667,96.6,3810,3811.2,一般站,,,,一般站,,,,
56132,四川,石渠洛须,196001,198107,21.78333333,108.35,8242.1,8242.1,,,1981年撤消,,,,,,
56137,西藏,昌都,195401,200012,31.15,97.01666667,3315,3316.2,基本站,,,,一般站,,,,
56144,四川,德格,195612,200012,31.8,98.58333333,3184,3185,基本站,,,,一般站,,,,
56146,四川,甘孜,195101,201207,31.61666667,100,3393.5,3394.6,基准站,,1991年改基准站,国际交换站,一般站,,,,
56147,四川,白玉,198101,201012,31.21666667,98.08333333,3260,3261.3,,,,,一般站,,,,
56151,青海,班玛,196002,200012,32.93333333,100.75,3530,3530.8,基本站,,缺196204-196504,,一般站,,,,
56152,四川,色达,196101,200012,32.28333333,100.0333333,3893.9,3895.8,基本站,,,,一般站,,,,
56158,四川,炉霍,198101,201012,31.4,100.0666667,3250,3251.4,,,,,一般站,,,,
56164,四川,壤塘,198101,201012,32.26666667,100.9833333,3284.8,3286,,,,,一般站,,,,
56167,四川,道孚,195702,200012,30.98333333,101.1166667,2957.2,2959.2,基本站,,,,一般站,,,,
56168,四川,金川,198101,201012,31.48333333,102.0666667,2168.9,2170.1,,,,,一般站,,,,
56171,四川,阿坝,195404,199106,32.9,101.7,3275.1,3276.3,一般站,缺196809-196811、199103,1991年改一般站,,一般站,,,,
56172,四川,马尔康,195304,201207,31.9,102.2333333,2664.4,2666.3,基本站,,,国际交换站,一般站,,,,
56173,四川,红原,196005,200012,32.8,102.55,3491.6,3492.8,基准站,,1995年改基准站,,一般站,,,,
56178,四川,小金,195112,200012,31,102.35,2438,2439.2,基本站,,,,一般站,,,,
56180,四川,茂县,198101,201012,31.68333333,103.85,1590.1,1591.3,,,,,一般站,,,,
56181,四川,崇州,198101,201012,30.68333333,103.7,541.7,543.3,,,,,一般站,,,,
56182,四川,松潘,195101,201207,32.06666667,103.6,2881.3,2882.5,基本站,,,国际交换站,一般站,,,,
56183,四川,汶川,198101,201012,31.05,103.6166667,1370.1,1371.3,,,,,一般站,,,,
56184,四川,理县,198101,201012,31.43333333,103.0166667,1896.7,1897.9,,,,,一般站,,,,
56185,四川,黑水,198101,201012,32.08333333,102.9833333,2400.1,2401.3,,,,,一般站,,,,
56186,四川,绵竹,198101,201012,31.03333333,104.2,589,590.2,,,,,一般站,,,,
56187,四川,温江,195903,201207,30.75,103.8666667,547.7,548.9,,,,国际交换站,一般站,,,,
56188,四川,都江堰,195407,200012,31,103.0666667,698.5,699.7,基本站,,,,一般站,,,,
56189,四川,彭州,198101,201012,30.98333333,103.9333333,581.7,582.9,,,,,一般站,,,,
56192,甘肃,文县,198101,201012,32.95,104.0666667,1014.3,1015.5,,,,,一般站,,,,
56193,四川,平武,195110,200012,32.41666667,104.5166667,876.5,877.4,基本站,,,,,,,,
56196,四川,绵阳,195401,200012,31.46666667,104.6833333,470.8,472.3,基准站,,1989年改基准站,,,,,,
56197,四川,什邡,198101,201012,31.15,104.0166667,535.7,536.8,,,,,一般站,,,,
56198,四川,德阳,198101,201012,31.31666667,104.05,525.7,526.7,,,,,一般站,,,,
56199,四川,中江,198101,201012,31.03333333,104.6833333,423.5,424.7,,,,,一般站,,,,
56202,西藏,嘉黎,195411,200012,30.66666667,93.28333333,9488.8,4489.8,基本站,缺195503-195609、195707-196012,,,,,,,
56223,西藏,洛隆,199201,200012,30.75,95.08333333,3640,3641.2,基本站,,,,一般站,,,,
56227,西藏,波密,195501,200012,29.86666667,95.76666667,2736,2737.2,基本站,缺195611、195706-196012,,,一般站,,,,
56228,西藏,八宿,199101,200012,30.05,96.91666667,3260,3261,一般站,,,,一般站,,,,
56247,四川,巴塘,195209,200012,30,99.1,2589.2,2590.2,基本站,缺195604、195605、195612-195704、195712-195812、196805-196812,,,一般站,,,,
56251,四川,新龙,195910,200012,30.93333333,100.3166667,3000,2999.2,基本站,,,,一般站,,,,
56257,四川,理塘,195205,201207,30,100.2666667,3948.9,3950.5,基本站,缺196709、196905-196908,,国际交换站,一般站,,,,
56263,四川,丹巴,198101,201012,30.88333333,101.8833333,1949.7,1951,,,,,一般站,,,,
56267,四川,雅江,198101,201012,30.03333333,101.0166667,2600.9,2602.2,,,,,一般站,,,,
56272,四川,郫县,198101,201012,30.81666667,103.8833333,558.5,559.7,,,,,一般站,,,,
56273,四川,宝兴,198101,201012,30.38333333,102.8166667,1022,1023.2,,,,,一般站,,,,
56276,四川,新津,198101,201012,30.45,103.8166667,467,468.2,,,,,一般站,,,,
56278,四川,天全,198101,201012,30.06666667,102.7666667,755.8,758,,,,,一般站,,,,
56279,四川,芦山,198101,201012,30.15,102.9333333,682.7,683.9,,,,,一般站,,,,
56280,四川,名山,198101,201012,30.08333333,103.1166667,691.3,692.4,,,,,一般站,,,,
56281,四川,蒲江,198101,201012,30.18333333,103.05,510.8,512,,,,,一般站,,,,
56284,四川,邛崃,198101,201012,30.45,103.4333333,518.5,519.5,,,,,一般站,,,,
56285,四川,大邑,198101,201012,30.6,103.5166667,523.9,525.3,,,,,一般站,,,,
56286,四川,龙泉驿,198101,201012,30.55,104.25,515.1,516.3,,,,,一般站,,,,
56287,四川,雅安,195101,200012,29.98333333,103,627.6,629.4,基本站,,,,,,,,
56288,四川,双流,198101,201012,30.58333333,103.9166667,494.6,495.8,,,,,一般站,,,,
56289,四川,彭山,198101,201012,30.2,103.8666667,437,438.2,,,,,一般站,,,,
56290,四川,新都,198101,201012,30.78333333,104.1833333,514.5,515.7,,,,,一般站,,,,
56294,四川,成都,195101,200012,30.66666667,104.0166667,506.1,507.3,基本站,,,,,,,,
56296,四川,金堂,198101,201012,30.85,104.4333333,448.4,449.5,,,,,一般站,,,,
56297,四川,仁寿,198101,201012,30.01666667,104.15,436.5,437.7,,,,,一般站,,,,
56298,四川,资阳,195701,199106,30.13333333,104.6,417,417.9,一般站,,1991年改一般站,,一般站,,,,
56307,西藏,加查,199101,200012,29.15,92.58333333,8260,3260.9,一般站,,,,,,,,
56312,西藏,林芝,195401,200012,29.06666667,94.03333333,2991.8,2993,基本站,缺195404、195705-195910,,,一般站,,,,
56317,西藏,米芝,199101,200012,29.21666667,94.21666667,2950,2951.2,一般站,,,,一般站,,,,
56331,西藏,左贡,197801,200012,29.06666667,97.08333333,3780,3781.2,基本站,,,,一般站,,,,
56342,西藏,茫康,199101,200012,29.68333333,98.6,3870,3871,一般站,,,,,,,,
56357,四川,稻城,195701,200012,29.05,100.3,3727.7,3728.6,基本站,,缺196805,,一般站,,,,
56371,四川,泸定,198101,201012,29.91666667,102.2333333,1321.2,1322.4,,,,,一般站,,,,
56373,四川,荥经,198101,201012,29.78333333,102.85,763.2,763.7,,,,,一般站,,,,
56374,四川,康定,195111,200012,30.05,101.9666667,2615.7,2615.5,基本站,,,,一般站,,,,
56376,四川,汉源,195101,199106,29.35,102.6333333,1098,1098.7,一般站,,1991年改一般站,,一般站,,,,
56378,四川,石棉,198101,201012,29.23333333,102.35,890.7,891.9,,,,,一般站,,,,
56380,四川,洪雅,198101,201012,29.88333333,103.35,571.2,572.4,,,,,一般站,,,,
56381,四川,丹棱,198101,201012,30.06666667,103.05,630.2,631.4,,,,,一般站,,,,
56382,四川,夹江,198101,201012,29.73333333,103.6,407.1,408.3,,,,,一般站,,,,
56383,四川,青神,198101,201012,29.08333333,103.8666667,455.2,456.4,,,,,一般站,,,,
56384,四川,峨眉,198101,201012,29.6,103.4833333,446.7,447.9,,,,,一般站,,,,
56385,四川,峨眉山,195101,200012,29.51666667,103.0333333,3047.4,3048.3,基本站,,,,一般站,,,,
56386,四川,乐山,195101,200012,29.56666667,103.75,424.2,425.2,基准站,,1989年改基准站,,一般站,,,,
56387,四川,峨边,198101,201012,29.23333333,103.2666667,642.2,643.4,,,,,一般站,,,,
56389,四川,犍为,198101,201012,29.2,103.95,387.6,388.8,,,,,一般站,,,,
56390,四川,井研,198101,201012,29.06666667,104.0666667,404.4,405.6,,,,,一般站,,,,
56391,四川,眉山,198101,201012,30.08333333,103.8166667,415.4,416.6,,,,,一般站,,,,
56393,四川,资中,198101,201012,29.76666667,104.85,369.4,370.9,,,,,一般站,,,,
56394,四川,荣县,198101,201012,29.45,104.4333333,384.1,385.3,,,,,一般站,,,,
56395,四川,威远,198101,201012,29.51666667,104.0666667,351.1,349.5,,,,,一般站,,,,
56396,四川,自贡,198101,201012,29.35,104.7666667,352.6,353.8,,,,,一般站,,,,
56399,四川,富顺,198101,201012,29.18333333,104.9833333,306.2,307.4,,,,,一般站,,,,
56434,西藏,察隅,196601,200012,28.65,97.46666667,2327.6,2328.8,基本站,,缺196601-196901,,一般站,,,,
56441,四川,得荣,196001,199106,28.71666667,99.28333333,2422.9,2424.1,一般站,缺196709、196711-197004,,,一般站,,,,
56443,四川,乡城,198101,201012,28.93333333,99.8,2842,2843.1,,,,,一般站,,,,
56444,云南,德钦,195308,201207,28.48333333,98.91666667,3319,3320.8,基本站,,,国际交换站,一般站,,,,
56459,四川,木里,195906,200012,27.93333333,101.2666667,2426.5,2424.6,基本站,,,,一般站,,,,
56462,四川,九龙,195207,201207,29,101.05,2925,2931.4,基本站,,,国际交换站,一般站,,,,
56473,四川,甘洛,198101,201012,28.95,102.7666667,1060.3,1061.5,,,,,一般站,,,,
56474,四川,冕宁,198101,201012,28.55,102.0166667,1774,1775.2,,,,,一般站,,,,
56475,四川,越西,195304,200012,28.65,102.5166667,1659.5,1660.1,基本站,,,,一般站,,,,
56478,四川,喜德,198101,201012,28.3,102.4333333,1818.1,1819.3,,,,,一般站,,,,
56479,四川,昭觉,195612,200012,28,102.85,2132.4,2133.7,基本站,,,,一般站,,,,
56480,四川,马边,198101,201012,28.81666667,103.5333333,564.1,565.2,,,,,一般站,,,,
56483,云南,绥江,198101,201012,28.58333333,103.95,496.6,494.5,,,,,一般站,,,,
56485,四川,雷波,195207,200012,28.26666667,103.5833333,1255.8,1254.8,基本站,,,,一般站,,,,
56487,四川,美姑,198101,201012,28.03333333,103.1333333,1943.9,1945.1,,,,,一般站,,,,
56489,云南,永善,198101,201012,28.23333333,103.6333333,877.2,876.3,,,,,一般站,,,,
56490,四川,沐川,198101,201012,28.95,103.9,424,425.2,,,,,一般站,,,,
56491,四川,宜宾县,198101,201012,28.7,104.5666667,287,288.2,,,,,一般站,,,,
56492,四川,宜宾,195101,201207,28.8,104.6,340.8,342.1,基本站,,,国际交换站,一般站,,,,
56493,四川,南溪,198101,201012,28.85,104.9666667,292.8,294,,,,,一般站,,,,
56494,四川,屏山,198101,201012,28.65,104.15,462,463.2,,,,,一般站,,,,
56496,四川,兴文,198101,201012,28.31666667,105.2333333,358.2,330,,,,,一般站,,,,
56497,云南,盐津,198101,201012,28.1,104.2333333,448.8,433.3,,,,,一般站,,,,
56498,四川,筠连,198101,201012,28.15,104.05,549,550.2,,,,,一般站,,,,
56499,四川,珙县,198101,201012,28.38333333,104.7833333,368.2,369.4,,,,,一般站,,,,
56533,云南,贡山,195801,200012,27.75,98.06666667,1583.3,1587.7,基本站,,,,一般站,,,,
56543,云南,中甸,195801,200012,27.08333333,99.7,3276.7,3277.6,基本站,,,,一般站,,,,
56548,云南,维西,195404,200012,27.01666667,99.28333333,2326.1,2326,基本站,,,,一般站,,,,
56565,四川,盐源,195612,200012,27.43333333,101.5166667,2545,2545,基本站,,,,一般站,,,,
56567,云南,宁蒗,198101,201012,27.3,100.85,2240.5,2242.3,,,,,一般站,,,,
56569,四川,德昌,198101,201012,27.41666667,102.1833333,1380,1381.2,,,,,一般站,,,,
56571,四川,西昌,195101,201207,27.9,102.2666667,1590.9,1592.7,基本站,,,国际交换站,一般站,,,,
56575,四川,普格,198101,201012,27.36666667,102.55,1428,1429.2,,,,,一般站,,,,
56578,四川,宁南,198101,201012,27.06666667,102.75,993.6,994.8,,,,,一般站,,,,
56580,四川,布拖,198101,201012,27.71666667,102.8,2460,2461.5,,,,,一般站,,,,
56582,云南,大关,198101,201012,27.75,103.9,1176.2,1177,,,,,一般站,,,,
56584,四川,金阳,198101,201012,27.7,103.25,1093,1093.7,,,,,一般站,,,,
56585,云南,鲁甸,198101,201012,27.18333333,103.5333333,1916,1916,,,,,一般站,,,,
56586,云南,昭通,195101,200012,27.35,103.7166667,1949.5,1950,基本站,,缺196709,,一般站,,,,
56592,四川,高县,198101,201012,28.43333333,104.5166667,359.7,360.9,,,,,一般站,,,,
56593,四川,长宁,198101,201012,28.58333333,104.9166667,279.1,281.9,,,,,一般站,,,,
56594,云南,彝良,198101,201012,27.63333333,104.05,880.4,884,,,,,一般站,,,,
56595,云南,镇雄,198101,201012,27.41666667,104.8666667,1645.2,1644.3,,,,,一般站,,,,
56596,云南,威信,198101,201012,27.85,105.05,1177.2,1176.5,,,,,一般站,,,,
56598,贵州,赫章,198101,201012,27.13333333,104.7333333,1535.1,1538.1,,,,,一般站,,,,
56641,云南,福贡,198101,201012,26.9,98.86666667,1189.7,1191.5,,,,,一般站,,,,
56643,云南,六库,198101,201012,25.86666667,98.85,949.9,950.6,,,,,一般站,,,,
56645,云南,兰坪,198101,201012,26.41666667,99.41666667,2344.9,2345.9,,,,,一般站,,,,
56646,云南,剑川,198101,201012,26.53333333,99.91666667,2191.4,2193.5,,,,,一般站,,,,
56649,云南,洱源,198101,201012,26.1,99.96666667,2059.9,2059.9,,,,,一般站,,,,
56651,云南,丽江,195101,201207,26.85,100.2166667,2380.9,2382.1,基准站,,1996年改基准站,国际交换站,一般站,,,,
56652,云南,永胜,198101,201012,26.68333333,100.75,2130.5,2131,,,,,一般站,,,,
56654,云南,鹤庆,198101,201012,26.58333333,100.1833333,2195.4,2196.8,,,,,一般站,,,,
56664,云南,华坪,195612,200012,26.63333333,101.2666667,1230.8,1230.8,基本站,,缺196806-196810,,一般站,,,,
56665,四川,盐边,198101,201012,26.68333333,101.85,1140.3,1141.5,,,,,一般站,,,,
56666,四川,攀枝花,198801,200012,26.58333333,101.7166667,1224.8,1225.9,基本站,,,,一般站,,,,
56669,云南,永仁,198101,201012,26.05,101.0666667,1531.3,1534.1,,,,,一般站,,,,
56670,四川,米易,198101,201012,26.91666667,102.1166667,1136.9,1138.3,,,,,一般站,,,,
56671,四川,会理,195206,201207,26.65,102.25,1787.3,1788.6,基准站,,1995年改基准站,国际交换站,一般站,,,,
56673,云南,巧家,198101,201012,26.91666667,102.9166667,893.9,894.9,,,,,一般站,,,,
56674,四川,仁和,197101,198712,26.05,101.7333333,1108,1109.1,一般站,,,,一般站,,,,
56675,四川,会东,198101,201012,26.65,102.5833333,1694.5,1695.7,,,,,一般站,,,,
56684,云南,会泽,195210,200012,26.4,103.25,2188.3,2189.3,基本站,,,,一般站,,,,
56688,云南,东川,198101,201012,26.1,103.0166667,1254.1,1253.4,,,,,一般站,,,,
56691,贵州,威宁,195101,200012,26.86666667,104.2833333,2237.5,2238.6,基准站,,1992年改基准站,,一般站,,,,
56697,云南,宣威,198101,201012,26.21666667,104.0833333,1984.2,1987.4,,,,,一般站,,,,
56739,云南,腾冲,195101,201207,24.98333333,98.05,1695.9,1696.9,基本站,,1987年改基准站,国际交换站,一般站,,,,
56741,云南,泸水,195701,200012,25.98333333,98.81666667,1804.9,1803.7,基本站,,,,,,,,
56742,云南,云龙,198101,201012,25.9,99.36666667,1658.5,1663.9,,,,,一般站,,,,
56745,云南,漾濞,198101,201012,25.68333333,99.95,1626.1,1627.2,,,,,一般站,,,,
56746,云南,永平,198101,201012,25.46666667,99.51666667,1616.7,1618.3,,,,,一般站,,,,
56748,云南,保山,195101,200012,25.11666667,99.18333333,1652.2,1651.2,基本站,,,,一般站,,,,
56751,云南,大理,195101,200012,25.7,100.1833333,1990.5,1991.6,基本站,,,,一般站,,,,
56752,云南,宾川,198101,201012,25.08333333,100.5666667,1438.7,1440.3,,,,,一般站,,,,
56755,云南,弥渡,198101,201012,25.35,100.4833333,1668.5,1670,,,,,一般站,,,,
56757,云南,巍山,198101,201012,25.26666667,100.2833333,1742.1,1744,,,,,一般站,,,,
56761,云南,大姚,198101,201012,25.71666667,101.3166667,1878.1,1873.7,,,,,一般站,,,,
56763,云南,元谋,195511,200012,25.73333333,101.8666667,1120.2,1121.1,基本站,,缺196806-196812,,,,,,
56764,云南,姚安,198101,201012,25.53333333,101.2333333,1873.5,1875.2,,,,,一般站,,,,
56766,云南,牟定,198101,201012,25.3,101.5166667,1822,1821.6,,,,,一般站,,,,
56767,云南,南华,198101,201012,25.18333333,101.2833333,1857.4,1858.3,,,,,一般站,,,,
56768,云南,楚雄,195209,201207,25.01666667,101.5333333,1772,1773,基本站,,缺195104-195208,国际交换站,,,,,
56772,云南,富民,198101,201012,25.23333333,102.05,1692.7,1694.4,,,,,一般站,,,,
56774,云南,武定,198101,201012,25.53333333,102.4166667,1710.7,1712,,,,,一般站,,,,
56777,云南,禄丰,198101,201012,25.15,102.0666667,1566.1,1566.8,,,,,一般站,,,,
56778,云南,昆明,195101,201207,25,102.65,1888.1,1889.1,基准站,缺199101,1987年改基准站,国际交换站,一般站,,,,
56782,云南,马龙,198101,201012,25.41666667,103.55,2067.1,2064.8,,,,,一般站,,,,
56783,云南,曲靖,198101,201012,25.05,103.8,1906.2,1906.3,,,,,一般站,,,,
56785,云南,嵩明,198101,201012,25.35,103.0833333,1915.7,1916.7,,,,,一般站,,,,
56786,云南,沾益,195101,200012,25.58333333,103.8333333,1898.7,1900.1,基本站,,,,,,,,
56790,云南,富源,198101,201012,25.68333333,104.25,1925.8,1920.5,,,,,一般站,,,,
56792,贵州,普安,198101,201012,25.78333333,104.9666667,1649.4,1648.5,,,,,一般站,,,,
56793,贵州,盘县,195101,200012,25.71666667,104.4666667,1800,1796,基本站,,,,一般站,,,,
56835,云南,陇川,198101,201012,24.06666667,97.81666667,959.1,958.7,,,,,一般站,,,,
56836,云南,盈江,198101,201012,24.7,97.95,826.7,828.1,,,,,一般站,,,,
56838,云南,瑞丽,195701,200012,24.01666667,97.85,776.6,776.4,基本站,,,,,,,,
56839,云南,镇康,198101,201012,23.76666667,98.81666667,995.3,994.5,,,,,一般站,,,,
56840,云南,粱河,198101,201012,24.81666667,98.3,1012.9,1013.7,,,,,一般站,,,,
56841,云南,龙陵,198101,201012,24.6,98.68333333,1528,1527.6,,,,,一般站,,,,
56842,云南,施甸,198101,201012,24.73333333,99.18333333,1471.2,1473.4,,,,,一般站,,,,
56843,云南,昌宁,198101,201012,24.08333333,99.61666667,1650.6,1650.2,,,,,一般站,,,,
56844,云南,芒市,198101,201012,24.43333333,98.58333333,913.8,915,,,,,一般站,,,,
56846,云南,凤庆,198101,201012,24.58333333,99.93333333,1569,1569.8,,,,,一般站,,,,
56849,云南,永德,198101,201012,24.03333333,99.23333333,1606.2,1607.2,,,,,一般站,,,,
56851,云南,南涧,198101,201012,25.03333333,100.5166667,1377.2,1378.6,,,,,一般站,,,,
56854,云南,云县,198101,201012,24.45,100.1333333,1108.6,1108.1,,,,,一般站,,,,
56856,云南,景东,195512,200012,24.46666667,100.8666667,1162.3,1163.5,基本站,,,,一般站,,,,
56862,云南,双柏,198101,201012,24.68333333,101.6,1968.1,1966,,,,,一般站,,,,
56863,云南,安宁,198101,201012,24.93333333,102.4833333,1848,1850,,,,,一般站,,,,
56867,云南,镇沅,198101,201012,23.98333333,101.1166667,1105.4,1107.2,,,,,一般站,,,,
56869,云南,新平,198101,201012,24.06666667,101.9666667,1497.5,1498.2,,,,,一般站,,,,
56870,云南,易门,198101,201012,24.65,102.1833333,1600.9,1597.7,,,,,一般站,,,,
56871,云南,晋宁,198101,201012,24.65,102.6,1893.1,1894.2,,,,,一般站,,,,
56873,云南,澄江,198101,201012,24.68333333,102.9166667,1796.3,1788.5,,,,,一般站,,,,
56875,云南,玉溪,195101,200012,24.03333333,102.55,1716.9,1717.5,基本站,,,,一般站,,,,
56876,云南,江川,198101,201012,24.28333333,102.7666667,1731.1,1732.5,,,,,一般站,,,,
56878,云南,通海,198101,201012,24.13333333,102.75,1801.8,1802.4,,,,,一般站,,,,
56879,云南,华宁,198101,201012,24.18333333,102.9166667,1702.6,1698.9,,,,,一般站,,,,
56880,云南,宜良,195811,199105,24.91666667,103.0166667,1532.5,1532.9,一般站,缺196801-196804、199103,1991年改一般站,,一般站,,,,
56881,云南,石林,198101,201012,24.75,103.2666667,1695.8,1694.7,,,,,一般站,,,,
56882,云南,呈贡,198101,201012,24.88333333,102.8,1906.6,1909.2,,,,,一般站,,,,
56883,云南,师宗,198101,201012,24.81666667,103.9833333,1900.9,1901.9,,,,,一般站,,,,
56885,云南,弥勒,198101,201012,24.4,103.45,1415.5,1416.7,,,,,一般站,,,,
56886,云南,泸西,195801,200012,24.53333333,103.7666667,1704.3,1705.5,基本站,,,,一般站,,,,
56889,云南,丘北,198101,201012,24.05,104.0166667,1518.7,1518.5,,,,,一般站,,,,
56891,云南,罗平,198101,201012,24.98333333,104.3166667,1482.7,1482.4,,,,,一般站,,,,
56898,云南,峨山,198101,201012,24.18333333,102.4,1600,1601.2,,,,,一般站,,,,
56944,云南,沧源,198101,201012,23.15,99.26666667,1278.3,1280.7,,,,,一般站,,,,
56946,云南,耿马,199001,200012,23.55,99.4,1104.9,1104.8,基本站,,,,一般站,,,,
56948,云南,西盟,198101,201012,22.63333333,99.6,1155,1156.1,,,,,一般站,,,,
56949,云南,孟连,198101,201012,22.31666667,99.6,945,946.1,,,,,一般站,,,,
56950,云南,双江,198101,201012,23.46666667,99.8,1044.1,1044,,,,,一般站,,,,
56951,云南,临沧,195304,201207,23.88333333,100.0833333,1502.4,1502.6,基本站,,,国际交换站,一般站,,,,
56952,云南,景谷,198101,201012,23.05,100.7,913.2,914,,,,,一般站,,,,
56954,云南,澜沧,195401,201207,22.56666667,99.93333333,1054.8,1054.4,基本站,,,国际交换站,一般站,,,,
56958,云南,勐海,198101,201012,21.91666667,100.4166667,1176.3,1177.5,,,,,一般站,,,,
56959,云南,景洪,195308,200012,22,100.8,582,553.6,基本站,,,,,,,,
56962,云南,墨江,198101,201012,23.41666667,101.0666667,1314.6,1315.3,,,,,一般站,,,,
56964,云南,思茅,195111,201207,22.78333333,100.9666667,1302.1,1302.9,基本站,,,国际交换站,一般站,,,,
56966,云南,元江,195308,200012,23.6,101.9833333,400.9,401.6,基准站,,1993年改基准站,,一般站,,,,
56969,云南,勐腊,195612,200012,21.46666667,101.5833333,633.4,634.4,基准站,,1990年改基准站,,一般站,,,,
56970,云南,石屏,198101,201012,23.7,102.4833333,1419.3,1419.9,,,,,一般站,,,,
56975,云南,红河,198101,201012,23.36666667,102.4333333,974.5,975.9,,,,,一般站,,,,
56976,云南,元阳,198101,201012,23.23333333,102.0833333,232,229.4,,,,,一般站,,,,
56977,云南,江城,195701,200012,22.58333333,101.85,1120.5,1121,基本站,,,,一般站,,,,
56978,云南,绿春,198101,201012,23,102.4166667,1642.8,1640.7,,,,,一般站,,,,
56982,云南,开远,198101,201012,23.7,103.2833333,1117,1117.6,,,,,一般站,,,,
56984,云南,个旧,198101,201012,23.38333333,103.15,1720.5,1717.7,,,,,一般站,,,,
56985,云南,蒙自,195101,201207,23.38333333,103.3833333,1300.7,1301.7,基准站,,1987年改基准站,国际交换站,,,,,
56986,云南,屏边,195405,200012,22.98333333,103.6833333,1414.1,1412.1,基本站,,缺195704-195812,,,,,,
56987,云南,金平,198101,201012,22.78333333,103.2333333,1260,1261.1,,,,,一般站,,,,
56991,云南,砚山,198101,201012,23.61666667,104.0333333,1561.1,1561.1,,,,,一般站,,,,
56992,云南,西畴,198101,201012,23.45,104.7,1507.5,1508.1,,,,,一般站,,,,
56994,云南,文山,195511,200012,23.03333333,104.2833333,1293.5,1292.7,基本站,,缺196801,,一般站,,,,
56995,云南,马关,198101,201012,23.03333333,104.4166667,1332.9,1335.4,,,,,一般站,,,,
57001,甘肃,甘谷,198101,201012,34.75,105.0333333,1271.9,1273.1,,,,,一般站,,,,
57002,甘肃,秦安,198101,201012,34.85,105.65,1216.1,1217.3,,,,,一般站,,,,
57003,陕西,陇县,198101,201012,34.9,106.0833333,924.2,925.1,,,,,一般站,,,,
57004,甘肃,武山,198101,201012,34.73333333,104.8833333,1495.4,1496.6,,,,,一般站,,,,
57006,甘肃,天水,195101,200012,34.58333333,105.75,1141.6,1142.8,基本站,,,,一般站,,,,
57007,甘肃,礼县,198101,201012,34.18333333,105.1833333,1404.6,1405.8,,,,,一般站,,,,
57008,甘肃,西和,198101,201012,34.03333333,105.3,1579,1580.2,,,,,一般站,,,,
57011,甘肃,清水,198101,201012,34.75,106.15,1378.2,1379.4,,,,,一般站,,,,
57012,甘肃,张家川,198101,201012,34.98333333,106.2,1664.5,1665.7,,,,,一般站,,,,
57014,甘肃,麦积,196407,201207,34.56666667,105.8666667,1085.2,1086.4,,,,国际交换站,一般站,,,,
57016,陕西,宝鸡,195109,200012,34.35,107.1333333,612.4,613.7,基本站,,,,一般站,,,,
57020,陕西,宝鸡县,198101,201012,34.36666667,107.4,563,564.3,,,,,一般站,,,,
57021,陕西,千阳,198101,201012,34.65,107.1333333,751.6,751.5,,,,,一般站,,,,
57022,陕西,麟游,198101,201012,34.68333333,107.7833333,1026.3,1026.4,,,,,一般站,,,,
57023,陕西,彬县,198101,201012,35.01666667,108.1166667,919.9,920.6,,,,,一般站,,,,
57024,陕西,岐山,198101,201012,34.45,107.65,669.6,671.1,,,,,一般站,,,,
57025,陕西,凤翔,198101,201012,34.51666667,107.3833333,781.1,782,,,,,一般站,,,,
57026,陕西,扶风,198101,201012,34.36666667,107.8833333,585.9,586.9,,,,,一般站,,,,
57027,陕西,眉县,198101,201012,34.26666667,107.7333333,517.6,518.4,,,,,一般站,,,,
57028,陕西,太白,198101,201012,34.03333333,107.3166667,1543.6,1544.4,,,,,一般站,,,,
57029,陕西,礼泉,198101,201012,34.05,108.4833333,543.2,544.4,,,,,一般站,,,,
57030,陕西,永寿,198101,201012,34.7,108.15,994.6,995.4,,,,,一般站,,,,
57031,陕西,淳化,198101,201012,34.81666667,108.55,1012.7,1013.5,,,,,一般站,,,,
57033,陕西,泾阳,198101,201012,34.55,108.8166667,428.1,429,,,,,一般站,,,,
57034,陕西,武功,195404,200012,34.25,108.2166667,447.8,449.2,基本站,,,,一般站,,,,
57035,陕西,乾县,198101,201012,34.55,108.2333333,636.8,636.7,,,,,一般站,,,,
57036,陕西,西安,195101,200012,34.3,108.9333333,397.5,398,基准站,,1987年改基准站,,,,,,
57037,陕西,耀县,200001,200012,34.93333333,108.9833333,710,711.8,基准站,,2000年改基本站,,一般站,,,,
57038,陕西,兴平,198101,201012,34.28333333,108.45,410.9,411.5,,,,,一般站,,,,
57041,陕西,三原,198101,201012,34.63333333,108.9166667,424,425.5,,,,,一般站,,,,
57042,陕西,富平,198101,201012,34.78333333,109.1833333,470.9,472.3,,,,,一般站,,,,
57043,陕西,大荔,198101,201012,34.8,109.9666667,351.4,352.3,,,,,一般站,,,,
57045,陕西,渭南,198101,201012,34.51666667,109.4833333,349.8,354.3,,,,,一般站,,,,
57046,陕西,华山,195301,200012,34.48333333,110.0833333,2064.9,2057.9,基本站,,,,一般站,,,,
57048,陕西,秦都,198101,201012,34.4,108.7166667,472.8,473.4,,,,,一般站,,,,
57051,河南,三门峡,195701,200012,34.8,111.2,409.9,410.9,基本站,,,,一般站,,,,
57052,山西,永济,198101,201012,34.88333333,110.45,354.1,355.1,,,,,一般站,,,,
57053,山西,芮城,198101,201012,34.7,110.7166667,505.7,507.1,,,,,一般站,,,,
57054,陕西,潼关,198101,201012,34.55,110.2333333,556.3,557.1,,,,,一般站,,,,
57055,陕西,华阴,198101,201012,34.55,110.0833333,351.3,352.5,,,,,一般站,,,,
57056,河南,灵宝,198101,201012,34.53333333,110.85,484.5,485.5,,,,,一般站,,,,
57057,陕西,洛南,198101,201012,34.1,110.15,963.4,964.2,,,,,一般站,,,,
57060,山西,夏县,198101,201012,35.01666667,111.2333333,402.9,404.2,,,,,一般站,,,,
57061,山西,平陆,198101,201012,34.08333333,111.2,410.7,412.6,,,,,一般站,,,,
57063,河南,渑池,198101,201012,34.76666667,111.7666667,523.6,523.6,,,,,一般站,,,,
57066,河南,洛宁,198101,201012,34.4,111.0666667,408.2,408.7,,,,,一般站,,,,
57067,河南,卢氏,195207,201207,34.05,111.0333333,568.8,569.9,基本站,,,国际交换站,,,,,
57070,河南,新安,198101,201012,34.73333333,112.1166667,364,359.5,,,,,一般站,,,,
57071,河南,孟津,196101,200012,34.81666667,112.4333333,333.3,333.2,基本站,,,,一般站,,,,
57072,河南,孟州,198101,201012,34.91666667,112.75,127.5,128.5,,,,,一般站,,,,
57073,河南,洛阳,195101,199106,34.63333333,112.4666667,137.1,137.9,一般站,,1991年改一般站,,,,,,
57074,河南,伊川,198101,201012,34.41666667,112.4,252.2,246.9,,,,,一般站,,,,
57075,河南,汝州,198101,201012,34.01666667,112.8666667,203.1,204.3,,,,,一般站,,,,
57076,河南,偃师,198101,201012,34.73333333,112.7833333,189.5,190.1,,,,,一般站,,,,
57077,河南,栾川,195701,200012,33.78333333,111.6,750.1,751.5,基本站,,,,,,,,
57078,河南,汝阳,198101,201012,34.15,112.4666667,336.5,334,,,,,一般站,,,,
57079,河南,温县,198101,201012,34.95,113.0333333,106.4,106.9,,,,,一般站,,,,
57080,河南,巩义,198101,201012,34.73333333,112.9666667,165.2,166.1,,,,,一般站,,,,
57081,河南,荥阳,198101,201012,34.8,113.4333333,140.9,141.9,,,,,一般站,,,,
57082,河南,登封,198101,201012,34.46666667,113.0166667,427.1,428.4,,,,,一般站,,,,
57083,河南,郑州,195101,201207,34.71666667,113.65,110.4,111.6,基准站,,1987年改基准站,国际交换站,一般站,,,,
57084,河南,嵩山,198101,201012,34.05,113.05,1178.4,1179,,,,,一般站,,,,
57085,河南,新密,198101,201012,34.53333333,113.0333333,259.9,264.8,,,,,一般站,,,,
57086,河南,新郑,198101,201012,34.38333333,113.7166667,116.6,116.8,,,,,一般站,,,,
57087,河南,长葛,198101,201012,34.26666667,113.7333333,104.1,105,,,,,一般站,,,,
57088,河南,禹州,198101,201012,34.15,113.05,116.1,117.7,,,,,一般站,,,,
57089,河南,许昌,195207,200012,34.06666667,113.9333333,67.2,68.2,基本站,,,,一般站,,,,
57090,河南,中牟,198101,201012,34.71666667,113.9666667,78.1,80.2,,,,,一般站,,,,
57091,河南,开封,195101,200012,34.78333333,114.3,73.7,74.8,基本站,,,,一般站,,,,
57093,河南,兰考,198101,201012,34.85,114.8166667,73.3,74,,,,,一般站,,,,
57094,河南,尉氏,198101,201012,34.4,114.2166667,67.4,68.5,,,,,一般站,,,,
57095,河南,鄢陵,198101,201012,34.11666667,114.15,61.1,62.2,,,,,一般站,,,,
57096,河南,杞县,198101,201012,34.53333333,114.7833333,59.7,60.7,,,,,一般站,,,,
57098,河南,扶沟,198101,201012,34.08333333,114.4,58.3,59.3,,,,,一般站,,,,
57099,河南,太康,198101,201012,34.06666667,114.85,52.6,53.6,,,,,一般站,,,,
57102,甘肃,成县,198101,201012,33.75,105.7166667,970,971.2,,,,,一般站,,,,
57105,甘肃,康县,198101,201012,33.03333333,105.6,1221.2,1222.4,,,,,一般站,,,,
57106,陕西,略阳,195301,200012,33.31666667,106.15,794.2,797.3,基本站,缺196709、196804-196808,,,一般站,,,,
57110,甘肃,徽县,198101,201012,33.78333333,106.0833333,930.8,932,,,,,一般站,,,,
57111,甘肃,两当,198101,201012,33.91666667,106.3,961.4,962.6,,,,,一般站,,,,
57113,陕西,凤县,198101,201012,33.9,106.5333333,985.9,986.7,,,,,一般站,,,,
57119,陕西,勉县,198101,201012,33.01666667,106.7,548.1,552.2,,,,,一般站,,,,
57123,陕西,杨凌,200801,201012,34.28333333,108.0666667,506,506.8,,,,,一般站,,,,
57124,陕西,留坝,198101,201012,33.63333333,106.9333333,1032.1,1033.3,,,,,一般站,,,,
57127,陕西,汉中,195101,201207,33.06666667,107.0333333,509.5,510.7,基准站,缺196804-196808,1992年改基准站；,国际交换站,一般站,,,,
57128,陕西,城固,198101,201012,33.01666667,107.0333333,486.4,487,,,,,一般站,,,,
57131,陕西,泾河,200501,201207,34.43333333,108.9666667,410,411,,,,国际交换站,一般站,,,,
57134,陕西,佛坪,195701,200012,33.51666667,107.9833333,827.2,827.9,基本站,,,,一般站,,,,
57137,陕西,宁陕,198101,201012,33.31666667,108.3166667,802.4,802,,,,,一般站,,,,
57140,陕西,柞水,198101,201012,33.06666667,109.1166667,818.2,819.4,,,,,一般站,,,,
57143,陕西,尚州,195303,200012,33.86666667,109.9666667,742.2,743.8,基本站,,缺195311-195312,,一般站,,,,
57144,陕西,镇安,195710,200012,33.43333333,109.15,693.7,696.2,基本站,缺196803、196806-196809,,,一般站,,,,
57153,陕西,丹凤,198101,201012,33.68333333,110.0333333,581.7,582.5,,,,,一般站,,,,
57154,陕西,商南,198101,201012,33.53333333,110.9,523,523.8,,,,,一般站,,,,
57155,陕西,山阳,198101,201012,33.55,109.8666667,660.2,661,,,,,一般站,,,,
57156,河南,西峡,195701,200012,33.3,111.05,250.3,251.3,基本站,,,,一般站,,,,
57162,河南,嵩县,198101,201012,34.13333333,112.0666667,440.7,439.7,,,,,一般站,,,,
57169,河南,内乡,198101,201012,33.05,111.8666667,159.1,160,,,,,一般站,,,,
57173,河南,鲁山,198101,201012,33.75,112.8833333,145.7,146.8,,,,,一般站,,,,
57175,河南,镇平,198101,201012,33.05,112.2333333,191.4,192.2,,,,,一般站,,,,
57176,河南,南召,198101,201012,33.48333333,112.4166667,231.1,230.4,,,,,一般站,,,,
57177,河南,舞钢,198101,201012,33.03333333,113.5333333,89.8,91.3,,,,,一般站,,,,
57178,河南,南阳,195207,200012,33.1,112.4833333,180.6,181.6,基准站,,1988年改基准站,,一般站,,,,
57179,河南,方城,198101,201012,33.28333333,113,160.4,161.6,,,,,一般站,,,,
57180,河南,郏县,198101,201012,33.98333333,113.2,117.5,118.6,,,,,一般站,,,,
57181,河南,宝丰,195701,200012,33.88333333,113.05,136.4,137.4,基本站,,,,一般站,,,,
57182,河南,襄城,198101,201012,33.85,113.5166667,80.4,81.4,,,,,一般站,,,,
57183,河南,临颍,198101,201012,33.8,113.9166667,60,65.2,,,,,一般站,,,,
57184,河南,叶县,198101,201012,33.63333333,113.3,97.5,98.5,,,,,一般站,,,,
57185,河南,舞阳,198101,201012,33.45,113.5833333,91.1,92.1,,,,,一般站,,,,
57186,河南,漯河,198101,201012,33.6,114.05,58.7,59.8,,,,,一般站,,,,
57187,河南,社旗,198101,201012,33.06666667,112.9333333,118,119.3,,,,,一般站,,,,
57188,河南,西平,198101,201012,33.36666667,114.0333333,55.9,56.8,,,,,一般站,,,,
57189,河南,遂平,198101,201012,33.13333333,113.95,64.6,65.5,,,,,一般站,,,,
57190,河南,黄泛区农试站,200401,201012,33.75,114.4,50.5,51.6,,,,,一般站,,,,
57191,河南,通许,198101,201012,34.48333333,114.4833333,63.4,64.2,,,,,一般站,,,,
57192,河南,淮阳,198101,201012,33.73333333,114.85,45.5,46.6,,,,,一般站,,,,
57193,河南,西华,195401,200012,33.78333333,114.5166667,52.6,53.6,基本站,,,,一般站,,,,
57194,河南,上蔡,198101,201012,33.28333333,114.2666667,59.8,60.9,,,,,一般站,,,,
57195,河南,川汇区,198101,201012,33.61666667,114.6166667,46.6,47.6,,,,,一般站,,,,
57196,河南,项城,198101,201012,33.46666667,114.8666667,42,42.8,,,,,一般站,,,,
57197,河南,汝南,198101,201012,32.96666667,114.35,50.1,51.1,,,,,一般站,,,,
57198,河南,商水,198101,201012,33.05,114.5666667,44.6,45.6,,,,,一般站,,,,
57204,四川,青川,198101,201012,32.56666667,105.2166667,782,783.2,,,,,一般站,,,,
57206,四川,广元,195101,200012,32.43333333,105.85,513.8,513.5,基本站,,缺196906,,一般站,,,,
57208,四川,剑阁,198101,201012,32.28333333,105.5166667,544.5,545.7,,,,,一般站,,,,
57211,陕西,宁强,198101,201012,32.08333333,106.25,836.1,837.1,,,,,一般站,,,,
57213,陕西,南郑,198101,201012,33,106.9333333,536.5,537.5,,,,,一般站,,,,
57216,四川,南江,198101,201012,32.35,106.0833333,579.3,580.5,,,,,一般站,,,,
57217,四川,旺苍,198101,201012,32.23333333,106.2833333,485.7,486.9,,,,,一般站,,,,
57231,陕西,紫阳,198101,201012,32.53333333,108.5333333,503.8,505,,,,,一般站,,,,
57232,陕西,石泉,195908,200012,33.05,108.2666667,484.9,485,基本站,,,,一般站,,,,
57233,陕西,汉阴,198101,201012,32.9,108.05,413.1,414.3,,,,,一般站,,,,
57237,四川,万源,195206,201207,32.06666667,108.0333333,674,675,基准站,,1991年改基准站,国际交换站,一般站,,,,
57238,陕西,镇巴,198101,201012,32.53333333,107.9,693.9,695.1,,,,,一般站,,,,
57242,陕西,旬阳,198101,201012,32.85,109.3666667,285.5,286.5,,,,,一般站,,,,
57245,陕西,安康,195210,200012,32.71666667,109.0333333,290.8,291.7,基准站,,1992年改基准站,,一般站,,,,
57247,陕西,岚皋,198101,201012,32.31666667,108.9,438.5,439.5,,,,,一般站,,,,
57248,陕西,平利,198101,201012,32.4,109.0333333,431,430,,,,,一般站,,,,
57249,湖北,竹溪,198101,201012,32.31666667,109.6833333,448.2,453.7,,,,,一般站,,,,
57251,湖北,陨西,198901,200012,33,110.4166667,249.1,249.9,基准站,,1989年改基准站,,一般站,,,,
57253,湖北,陨县,195207,199106,32.85,110.8166667,201.9,204,一般站,,1991年7月改一般站,,一般站,,,,
57254,陕西,白河,198101,201012,32.81666667,110.1166667,322.5,323.7,,,,,一般站,,,,
57256,湖北,十堰,198101,201012,32.65,110.7833333,286.5,283.5,,,,,一般站,,,,
57257,湖北,竹山,198101,201012,32.23333333,110.2333333,307,309.3,,,,,一般站,,,,
57259,湖北,房县,195801,200012,32.05,110.75,426.9,426.4,基本站,,,,一般站,,,,
57260,湖北,丹江口,198101,201012,32.56666667,111.5166667,133.4,140.6,,,,,一般站,,,,
57261,河南,淅川,198101,201012,33.11666667,111.5166667,233,234.5,,,,,一般站,,,,
57265,湖北,老河口,195101,201207,32.43333333,111.7333333,132.1,128.8,基本站,,,国际交换站,一般站,,,,
